{
  "municipality": "Tilburg",
  "generated_at": "2026-03-06T14:44:53.208422+00:00",
  "facility_count": 7,
  "facilities": [
    {
      "uuid": "85e5a169-e559-4ba0-aeb7-7d6522dfd374",
      "name": "Parkeergarage Stappegoor (Tilburg)",
      "operator": "Tilburg",
      "latitude": 51.539492,
      "longitude": 5.076497,
      "capacity": 1166,
      "vacantSpaces": 1087,
      "occupancyPercent": 6.8,
      "open": true,
      "full": false,
      "lastUpdated": 1772808031
    },
    {
      "uuid": "da570813-b3f6-4676-b5d3-4bb8e759eb50",
      "name": "Parkeergarage 013-Tivoli (Tilburg)",
      "operator": "Tilburg",
      "latitude": 51.558915,
      "longitude": 5.093035,
      "capacity": 480,
      "vacantSpaces": 373,
      "occupancyPercent": 22.3,
      "open": true,
      "full": false,
      "lastUpdated": 1772808031
    },
    {
      "uuid": "1ff340af-6c8d-47b9-ac0a-4b64402eeb90",
      "name": "Parkeergarage Knegtel (Tilburg)",
      "operator": "Tilburg",
      "latitude": 51.560868,
      "longitude": 5.077499,
      "capacity": 470,
      "vacantSpaces": 331,
      "occupancyPercent": 29.6,
      "open": true,
      "full": false,
      "lastUpdated": 1772808003
    },
    {
      "uuid": "1319b928-f405-4ee3-8c33-1e932e3156a4",
      "name": "Parkeergarage Schouwburg (Tilburg)",
      "operator": "Tilburg",
      "latitude": 51.554213,
      "longitude": 5.081408,
      "capacity": 285,
      "vacantSpaces": 176,
      "occupancyPercent": 38.2,
      "open": true,
      "full": false,
      "lastUpdated": 1772808031
    },
    {
      "uuid": "0fee70b1-f479-4557-aebc-d2860d533704",
      "name": "Parkeergarage Emmapassage (Tilburg)",
      "operator": "Tilburg",
      "latitude": 51.555054,
      "longitude": 5.088723,
      "capacity": 235,
      "vacantSpaces": 164,
      "occupancyPercent": 30.2,
      "open": true,
      "full": false,
      "lastUpdated": 1772808031
    },
    {
      "uuid": "a2c37c22-fa24-4591-aa78-bd0f4fe99978",
      "name": "Parkeergarge Koningsplein (Tilburg)",
      "operator": "Tilburg",
      "latitude": 51.553886,
      "longitude": 5.090045,
      "capacity": 234,
      "vacantSpaces": 167,
      "occupancyPercent": 28.6,
      "open": true,
      "full": false,
      "lastUpdated": 1772808031
    },
    {
      "uuid": "ff4ddfbf-66bf-473e-a80b-353290ed1084",
      "name": "Parkeergarage Pieter Vreedeplein (Tilburg)",
      "operator": "Tilburg",
      "latitude": 51.558404,
      "longitude": 5.08898,
      "capacity": 640,
      "vacantSpaces": 341,
      "occupancyPercent": 46.7,
      "open": true,
      "full": false,
      "lastUpdated": 1772808031
    }
  ]
}