{"type": "FeatureCollection", "metadata": {"generated_at": "2026-03-06T14:44:53.199004+00:00", "total_facilities": 283, "municipalities": ["'s-Hertogenbosch", "A50", "Alkmaar", "Almere", "Almere Buiten", "Almere Stad", "Alphen a/d Rijn", "Amersfoort", "Amsterdam", "Amsterdam Lelylaan", "Apeldoorn", "Arnhem", "Assen", "Beek", "Bergen op Zoom", "Beverwijk", "Boxtel", "Breda", "Bunde", "Delft", "Den Haag", "Deventer", "Diemen", "Doetinchem", "Dordrecht", "Duivendrecht", "Echt", "Eindhoven", "Enschede", "Gorinchem", "Groningen", "HWZB", "Harderwijk", "Heemstede-Aerdenhout", "Heerenveen", "Heerlen", "Helmond", "Hengelo", "Hoorn", "Klimmen Ransdaal", "Leeuwarden", "Leidschendam-Voorburg", "Lochem", "Maastricht", "Meersen", "Middelburg", "Naaldwijk", "Naarden-Bussum", "Nijmegen", "Noordwijk", "Odijkerweg, Zeist", "Oisterwijk", "Onbekend", "Oss", "Roermond", "Roosendaal", "Rotterdam", "Rotterdam Centraal", "Schiedam", "Schiedam Centrum", "Schin op Geul", "Sittard", "Sneek", "Susteren", "Tilburg", "Utrecht", "Valkenburg", "Veenendaal", "Venlo", "Vlaardingen", "Voerendaal", "Weert", "Woerden", "Zaandam", "Zaanstad", "Zutphen", "Zwijndrecht", "Zwolle", "utrecht"], "municipality_counts": {"'s-Hertogenbosch": 10, "A50": 1, "Alkmaar": 4, "Almere": 2, "Almere Buiten": 5, "Almere Stad": 10, "Alphen a/d Rijn": 1, "Amersfoort": 2, "Amsterdam": 19, "Amsterdam Lelylaan": 1, "Apeldoorn": 3, "Arnhem": 4, "Assen": 1, "Beek": 1, "Bergen op Zoom": 1, "Beverwijk": 1, "Boxtel": 1, "Breda": 2, "Bunde": 2, "Delft": 3, "Den Haag": 9, "Deventer": 6, "Diemen": 1, "Doetinchem": 3, "Dordrecht": 6, "Duivendrecht": 1, "Echt": 2, "Eindhoven": 1, "Enschede": 3, "Gorinchem": 1, "Groningen": 1, "HWZB": 1, "Harderwijk": 5, "Heemstede-Aerdenhout": 1, "Heerenveen": 1, "Heerlen": 3, "Helmond": 1, "Hengelo": 1, "Hoorn": 4, "Klimmen Ransdaal": 1, "Leeuwarden": 6, "Leidschendam-Voorburg": 1, "Lochem": 2, "Maastricht": 5, "Meersen": 1, "Middelburg": 1, "Naaldwijk": 1, "Naarden-Bussum": 1, "Nijmegen": 7, "Noordwijk": 1, "Odijkerweg, Zeist": 1, "Oisterwijk": 1, "Onbekend": 56, "Oss": 1, "Roermond": 2, "Roosendaal": 7, "Rotterdam": 14, "Rotterdam Centraal": 1, "Schiedam": 1, "Schiedam Centrum": 2, "Schin op Geul": 1, "Sittard": 1, "Sneek": 1, "Susteren": 2, "Tilburg": 7, "Utrecht": 9, "Valkenburg": 1, "Veenendaal": 3, "Venlo": 1, "Vlaardingen": 3, "Voerendaal": 1, "Weert": 1, "Woerden": 2, "Zaandam": 1, "Zaanstad": 1, "Zutphen": 1, "Zwijndrecht": 1, "Zwolle": 7, "utrecht": 1}}, "features": [{"type": "Feature", "geometry": {"type": "Point", "coordinates": [5.216889, 52.37182]}, "properties": {"uuid": "9b8087f3-3cbf-4a68-8869-828ce3ea6b51", "name": "P10 Muntgarage", "municipality": "Almere Stad", "operator": "Almere", "capacity": 385, "vacantSpaces": 199, "occupancyPercent": 48.3, "open": true, "full": false, "lastUpdated": 1772808030}}, {"type": "Feature", "geometry": {"type": "Point", "coordinates": [5.22311, 52.37167]}, "properties": {"uuid": "98ad5f41-d8c5-48ff-b205-c30be826d981", "name": "P04 Stadhuisgarage", "municipality": "Almere Stad", "operator": "Almere", "capacity": 255, "vacantSpaces": 81, "occupancyPercent": 68.2, "open": true, "full": false, "lastUpdated": 1772808030}}, {"type": "Feature", "geometry": {"type": "Point", "coordinates": [5.21748, 52.36976]}, "properties": {"uuid": "7895429d-3cda-4b0a-ad1e-321d0675a377", "name": "P09 Krakelinggarage", "municipality": "Almere Stad", "operator": "Almere", "capacity": 226, "vacantSpaces": 63, "occupancyPercent": 72.1, "open": true, "full": false, "lastUpdated": 1772808030}}, {"type": "Feature", "geometry": {"type": "Point", "coordinates": [5.217752, 52.36866]}, "properties": {"uuid": "d08e3df2-ed0e-4fb8-b784-83429a65d4c2", "name": "P07 Schippergarage", "municipality": "Almere Stad", "operator": "Almere", "capacity": 400, "vacantSpaces": 224, "occupancyPercent": 44.0, "open": true, "full": false, "lastUpdated": 1772808030}}, {"type": "Feature", "geometry": {"type": "Point", "coordinates": [6.57081, 53.219207]}, "properties": {"uuid": "9f89a6c7-df06-45ea-adf6-0b94088fcb57", "name": "parkeergarage Forum", "municipality": "Onbekend", "operator": "Groningen", "capacity": 335, "vacantSpaces": 25, "occupancyPercent": 92.5, "open": true, "full": false, "lastUpdated": 1772808011}}, {"type": "Feature", "geometry": {"type": "Point", "coordinates": [5.215195, 52.371147]}, "properties": {"uuid": "b8513bb2-460a-4f07-adee-66d1ae4ac909", "name": "P11 Leerlinggarage", "municipality": "Almere Stad", "operator": "Almere", "capacity": 98, "vacantSpaces": 45, "occupancyPercent": 54.1, "open": true, "full": false, "lastUpdated": 1772808030}}, {"type": "Feature", "geometry": {"type": "Point", "coordinates": [5.22076, 52.3743]}, "properties": {"uuid": "e4f778ec-4db9-474a-af7a-520ea373912f", "name": "P02 Metropolegarage", "municipality": "Almere Stad", "operator": "Almere", "capacity": 340, "vacantSpaces": 189, "occupancyPercent": 44.4, "open": true, "full": false, "lastUpdated": 1772808030}}, {"type": "Feature", "geometry": {"type": "Point", "coordinates": [5.221109, 52.373554]}, "properties": {"uuid": "f914b954-5e4c-4b25-859f-d775e4c473f5", "name": "P03 Regisseurgarage", "municipality": "Almere Stad", "operator": "Almere", "capacity": 445, "vacantSpaces": 199, "occupancyPercent": 55.3, "open": true, "full": false, "lastUpdated": 1772808030}}, {"type": "Feature", "geometry": {"type": "Point", "coordinates": [5.218139, 52.374174]}, "properties": {"uuid": "883bccff-15c5-46e8-bc2e-60599b54f10f", "name": "P12 Schoutgarage", "municipality": "Almere Stad", "operator": "Almere", "capacity": 329, "vacantSpaces": 213, "occupancyPercent": 35.3, "open": true, "full": false, "lastUpdated": 1772808030}}, {"type": "Feature", "geometry": {"type": "Point", "coordinates": [5.22151, 52.36947]}, "properties": {"uuid": "16b75fd7-9296-4b7b-a58a-4fb92e1f2e8a", "name": "P06 Hospitaalgarage", "municipality": "Almere Stad", "operator": "Almere", "capacity": 243, "vacantSpaces": 106, "occupancyPercent": 56.4, "open": true, "full": false, "lastUpdated": 1772808030}}, {"type": "Feature", "geometry": {"type": "Point", "coordinates": [5.21669, 52.36936]}, "properties": {"uuid": "78eead8f-16d0-4438-899b-328c4c382619", "name": "P08 Flevogarage", "municipality": "Almere Stad", "operator": "Almere", "capacity": 353, "vacantSpaces": 262, "occupancyPercent": 25.8, "open": true, "full": false, "lastUpdated": 1772808030}}, {"type": "Feature", "geometry": {"type": "Point", "coordinates": [5.789787, 53.203228]}, "properties": {"uuid": "c0bc471b-86b3-4d80-b62f-1d88101096b2", "name": "P-Oldehove", "municipality": "Leeuwarden", "operator": "Leeuwarden", "capacity": 510, "vacantSpaces": 149, "occupancyPercent": 70.8, "open": true, "full": false, "lastUpdated": 1772808030}}, {"type": "Feature", "geometry": {"type": "Point", "coordinates": [6.891227, 52.204007]}, "properties": {"uuid": "618afa54-e882-4c12-916c-f223cc9c4e4a", "name": "P&R Zuiderval", "municipality": "Onbekend", "operator": "Enschede", "capacity": 215, "vacantSpaces": 129, "occupancyPercent": 40.0, "open": true, "full": false, "lastUpdated": "1751870873"}}, {"type": "Feature", "geometry": {"type": "Point", "coordinates": [6.901198, 52.216916]}, "properties": {"uuid": "1a39c8e9-91f9-40d9-bdf3-ce1f6e438a14", "name": "Parkeergarage Van Heek", "municipality": "Enschede", "operator": "Enschede", "capacity": 1700, "vacantSpaces": 1464, "occupancyPercent": 13.9, "open": true, "full": false, "lastUpdated": "1751870873"}}, {"type": "Feature", "geometry": {"type": "Point", "coordinates": [5.797714, 53.197967]}, "properties": {"uuid": "14f1046d-1fda-4081-883b-d6a8a2ad937d", "name": "P-Klanderij", "municipality": "Leeuwarden", "operator": "Leeuwarden", "capacity": 625, "vacantSpaces": 407, "occupancyPercent": 34.9, "open": true, "full": false, "lastUpdated": 1772808030}}, {"type": "Feature", "geometry": {"type": "Point", "coordinates": [5.793889, 53.1993]}, "properties": {"uuid": "80d26cc5-1210-4bdf-beb4-0602f35bdccc", "name": "P-Zaailand", "municipality": "Leeuwarden", "operator": "Leeuwarden", "capacity": 705, "vacantSpaces": 98, "occupancyPercent": 86.1, "open": true, "full": false, "lastUpdated": 1772808030}}, {"type": "Feature", "geometry": {"type": "Point", "coordinates": [6.100186, 52.517227]}, "properties": {"uuid": "68d5fcce-596d-4f6d-97d5-e67f6f644ac7", "name": "Parkeergarage Diezerpoort (Zwolle)", "municipality": "Zwolle", "operator": "Zwolle", "capacity": 562, "vacantSpaces": 418, "occupancyPercent": 25.6, "open": true, "full": false, "lastUpdated": "1751870878"}}, {"type": "Feature", "geometry": {"type": "Point", "coordinates": [5.802397, 53.205689]}, "properties": {"uuid": "a03c3613-6fed-4659-906f-17843c227622", "name": "P-Hoeksterend", "municipality": "Leeuwarden", "operator": "Leeuwarden", "capacity": 388, "vacantSpaces": 171, "occupancyPercent": 55.9, "open": true, "full": false, "lastUpdated": 1772808030}}, {"type": "Feature", "geometry": {"type": "Point", "coordinates": [6.152129, 52.256486]}, "properties": {"uuid": "e3b7e292-ef14-43c9-96fb-85ab7b08ef09", "name": "Parkeergarage Stadspoort - Dek", "municipality": "Deventer", "operator": "Deventer", "capacity": 48, "vacantSpaces": 23, "occupancyPercent": 52.1, "open": true, "full": false, "lastUpdated": 1772808000}}, {"type": "Feature", "geometry": {"type": "Point", "coordinates": [6.091695, 52.503617]}, "properties": {"uuid": "a2bc4ea0-a218-4a59-a328-36fb8234402b", "name": "Parkeergarage Pas de Deux (Zwolle)", "municipality": "Zwolle", "operator": "Zwolle", "capacity": 195, "vacantSpaces": 73, "occupancyPercent": 62.6, "open": true, "full": false, "lastUpdated": "1751870878"}}, {"type": "Feature", "geometry": {"type": "Point", "coordinates": [6.893268, 52.218262]}, "properties": {"uuid": "480c50ad-2ef0-48df-8dbc-d2c8552151fd", "name": "Parkeergarage Mooienhof", "municipality": "Onbekend", "operator": "Enschede", "capacity": 100, "vacantSpaces": 71, "occupancyPercent": 29.0, "open": true, "full": false, "lastUpdated": "1751870873"}}, {"type": "Feature", "geometry": {"type": "Point", "coordinates": [6.898074, 52.222013]}, "properties": {"uuid": "824a6cd5-acd4-4d88-893e-d38aa1fc5116", "name": "Parkeergarage Irene", "municipality": "Enschede", "operator": "Enschede", "capacity": 475, "vacantSpaces": 413, "occupancyPercent": 13.1, "open": true, "full": false, "lastUpdated": "1751870873"}}, {"type": "Feature", "geometry": {"type": "Point", "coordinates": [6.086261, 52.51436]}, "properties": {"uuid": "92649a4d-67f8-4148-abc5-82cc95dedba3", "name": "Parkeergarage Katwoldeplein (Zwolle)", "municipality": "Zwolle", "operator": "Zwolle", "capacity": 679, "vacantSpaces": 566, "occupancyPercent": 16.6, "open": true, "full": false, "lastUpdated": "1751870878"}}, {"type": "Feature", "geometry": {"type": "Point", "coordinates": [6.094565, 52.507872]}, "properties": {"uuid": "809116db-8166-4d66-93d1-fc859f4449d8", "name": "Burgemeester van Roijensingel (Zwolle)", "municipality": "Zwolle", "operator": "Zwolle", "capacity": 173, "vacantSpaces": 62, "occupancyPercent": 64.2, "open": true, "full": false, "lastUpdated": "1751870878"}}, {"type": "Feature", "geometry": {"type": "Point", "coordinates": [6.160796, 52.250043]}, "properties": {"uuid": "186af3cc-3ebe-40b1-a807-72f98dbc94f7", "name": "Brink garage", "municipality": "Deventer", "operator": "Deventer", "capacity": 280, "vacantSpaces": 81, "occupancyPercent": 71.1, "open": true, "full": false, "lastUpdated": 1772808000}}, {"type": "Feature", "geometry": {"type": "Point", "coordinates": [6.086367, 52.509209]}, "properties": {"uuid": "2d8e6321-7108-4763-ba53-5d107ff6e674", "name": "Parkeergarage Emmawijk - Dek (Zwolle)", "municipality": "Onbekend", "operator": "Zwolle", "capacity": 199, "vacantSpaces": 151, "occupancyPercent": 24.1, "open": true, "full": false, "lastUpdated": "1751870878"}}, {"type": "Feature", "geometry": {"type": "Point", "coordinates": [5.969136, 52.213228]}, "properties": {"uuid": "d381c28b-2cf8-48b6-b0f8-8166c08cf25f", "name": "Parkeergarage Koningshaven-Centrum", "municipality": "Apeldoorn", "operator": "Apeldoorn", "capacity": 530, "vacantSpaces": 404, "occupancyPercent": 23.8, "open": true, "full": false, "lastUpdated": 1772808232}}, {"type": "Feature", "geometry": {"type": "Point", "coordinates": [5.987597, 52.22932]}, "properties": {"uuid": "dacca715-2cf3-400f-96c3-367f32f994e9", "name": "Parkeergarage Anklaar", "municipality": "Onbekend", "operator": "Apeldoorn", "capacity": 538, "vacantSpaces": 305, "occupancyPercent": 43.3, "open": true, "full": false, "lastUpdated": 1772808253}}, {"type": "Feature", "geometry": {"type": "Point", "coordinates": [6.015765, 52.208285]}, "properties": {"uuid": "33ac0b4d-9a9d-4c39-85df-13293292f04b", "name": "afrit 24 Apeldoorn (A50)", "municipality": "A50", "operator": "Apeldoorn", "capacity": 90, "vacantSpaces": 77, "occupancyPercent": 14.4, "open": true, "full": false, "lastUpdated": 1772808000}}, {"type": "Feature", "geometry": {"type": "Point", "coordinates": [6.095621, 52.515666]}, "properties": {"uuid": "ff27bae8-ce05-40c6-8422-03da3bd7d9e1", "name": "Parkeergarage Noordereiland - Dek (Zwolle)", "municipality": "Zwolle", "operator": "Zwolle", "capacity": 670, "vacantSpaces": 553, "occupancyPercent": 17.5, "open": true, "full": false, "lastUpdated": "1751870878"}}, {"type": "Feature", "geometry": {"type": "Point", "coordinates": [6.088352, 52.503792]}, "properties": {"uuid": "9e43035c-6707-4b47-a263-d62f0c5d5f84", "name": "Parkeergarage L\u00fcbeckplein (Zwolle)", "municipality": "Zwolle", "operator": "Zwolle", "capacity": 355, "vacantSpaces": 171, "occupancyPercent": 51.8, "open": true, "full": false, "lastUpdated": "1751870878"}}, {"type": "Feature", "geometry": {"type": "Point", "coordinates": [5.961093, 52.21153]}, "properties": {"uuid": "62075c53-5284-47d4-8909-3872721380d7", "name": "Parkeergarage Brinklaan (op werkdagen zijn 125 plaatsen gereserveerd)", "municipality": "Apeldoorn", "operator": "Apeldoorn", "capacity": 174, "vacantSpaces": 94, "occupancyPercent": 46.0, "open": true, "full": false, "lastUpdated": 1772808140}}, {"type": "Feature", "geometry": {"type": "Point", "coordinates": [6.097804, 52.501297]}, "properties": {"uuid": "8d632d4a-e8a0-4a18-8c6f-c9f84140464b", "name": "Parkeerterrein Hanzelaan (Zwolle)", "municipality": "Zwolle", "operator": "Zwolle", "capacity": 0, "vacantSpaces": 0, "occupancyPercent": null, "open": false, "full": true, "lastUpdated": "1750735072"}}, {"type": "Feature", "geometry": {"type": "Point", "coordinates": [5.899326, 51.984411]}, "properties": {"uuid": "b94f5b35-9793-43f9-927a-889478d76806", "name": "Garage Centraal (Arnhem)", "municipality": "Arnhem", "operator": "Arnhem", "capacity": 1050, "vacantSpaces": 513, "occupancyPercent": 51.1, "open": true, "full": false, "lastUpdated": 1772808030}}, {"type": "Feature", "geometry": {"type": "Point", "coordinates": [5.906031, 51.979481]}, "properties": {"uuid": "45abe415-46d3-422f-9db5-4a783328e490", "name": "Garage Rozet (Arnhem)", "municipality": "Arnhem", "operator": "Arnhem", "capacity": 450, "vacantSpaces": 128, "occupancyPercent": 71.6, "open": true, "full": false, "lastUpdated": 1772808030}}, {"type": "Feature", "geometry": {"type": "Point", "coordinates": [5.913364, 51.981698]}, "properties": {"uuid": "3e43afd2-aa12-4986-9927-73f883d30e55", "name": "Garage Musis (Arnhem)", "municipality": "Arnhem", "operator": "Arnhem", "capacity": 690, "vacantSpaces": 127, "occupancyPercent": 81.6, "open": true, "full": false, "lastUpdated": 1772808030}}, {"type": "Feature", "geometry": {"type": "Point", "coordinates": [5.912586, 51.984368]}, "properties": {"uuid": "55f5c0fa-d690-4528-90fb-5fe851c476ec", "name": "Garage Velperplein (Arnhem)", "municipality": "Arnhem", "operator": "Arnhem", "capacity": 147, "vacantSpaces": 50, "occupancyPercent": 66.0, "open": true, "full": false, "lastUpdated": 1772808030}}, {"type": "Feature", "geometry": {"type": "Point", "coordinates": [5.861051, 51.881898]}, "properties": {"uuid": "0967d16d-061b-4f44-838d-36cec4be68b9", "name": "P+R Nijmegen-Noord (Nijmegen)", "municipality": "Nijmegen", "operator": "Nijmegen", "capacity": 390, "vacantSpaces": 357, "occupancyPercent": 8.5, "open": true, "full": false, "lastUpdated": 1772808034}}, {"type": "Feature", "geometry": {"type": "Point", "coordinates": [5.621518, 52.349953]}, "properties": {"uuid": "b2ef972b-d8e8-4044-9a58-2223dace7c87", "name": "Garage P11 Vuldersbrink (Harderwijk)", "municipality": "Harderwijk", "operator": "Harderwijk", "capacity": 81, "vacantSpaces": 0, "occupancyPercent": 100.0, "open": true, "full": true, "lastUpdated": 1772808034}}, {"type": "Feature", "geometry": {"type": "Point", "coordinates": [5.617635, 52.347551]}, "properties": {"uuid": "1d38eb92-1cf6-453d-bb39-9a150145c52a", "name": "Terrein P17 Kloosterplein (Harderwijk)", "municipality": "Harderwijk", "operator": "Harderwijk", "capacity": 68, "vacantSpaces": 4, "occupancyPercent": 94.1, "open": true, "full": false, "lastUpdated": 1772808034}}, {"type": "Feature", "geometry": {"type": "Point", "coordinates": [5.620392, 52.348123]}, "properties": {"uuid": "ba951d66-5587-4874-bc96-68a0edd5bd62", "name": "Garage Houtwal (Harderwijk)", "municipality": "Harderwijk", "operator": "Harderwijk", "capacity": 430, "vacantSpaces": 155, "occupancyPercent": 64.0, "open": true, "full": false, "lastUpdated": 1772808034}}, {"type": "Feature", "geometry": {"type": "Point", "coordinates": [5.864618, 51.843891]}, "properties": {"uuid": "60bf0e76-d3bf-42d1-b7a0-04f0ab048e9d", "name": "Terrein Molenpoortdak (Nijmegen)", "municipality": "Nijmegen", "operator": "Nijmegen", "capacity": 289, "vacantSpaces": 289, "occupancyPercent": 0.0, "open": true, "full": false, "lastUpdated": 1772808031}}, {"type": "Feature", "geometry": {"type": "Point", "coordinates": [6.28968, 51.96707]}, "properties": {"uuid": "41db81b2-3d89-4e28-adb1-0d929b9e4b05", "name": "Garage Catharina (Doetinchem)", "municipality": "Doetinchem", "operator": "Doetinchem", "capacity": 176, "vacantSpaces": 176, "occupancyPercent": 0.0, "open": true, "full": true, "lastUpdated": "1772808143"}}, {"type": "Feature", "geometry": {"type": "Point", "coordinates": [5.861292, 51.823762]}, "properties": {"uuid": "8ac41951-5cb2-4c0d-a3af-8f2084bab917", "name": "RUNUMC Geert Grooteplein", "municipality": "Onbekend", "operator": "Nijmegen", "capacity": 677, "vacantSpaces": 302, "occupancyPercent": 55.4, "open": true, "full": false, "lastUpdated": 1772808249}}, {"type": "Feature", "geometry": {"type": "Point", "coordinates": [6.28848, 51.96911]}, "properties": {"uuid": "63668753-8a52-4660-8b89-f2cd097bd994", "name": "Garage Amphion (Doetinchem)", "municipality": "Doetinchem", "operator": "Doetinchem", "capacity": 394, "vacantSpaces": 303, "occupancyPercent": 23.1, "open": true, "full": false, "lastUpdated": "1772808143"}}, {"type": "Feature", "geometry": {"type": "Point", "coordinates": [5.870647, 51.846208]}, "properties": {"uuid": "ffab40f6-4a10-41f2-9cc1-b9c2879d8c37", "name": "P3 Parkeergarage Kelfkensbos", "municipality": "Nijmegen", "operator": "Nijmegen", "capacity": 484, "vacantSpaces": 270, "occupancyPercent": 44.2, "open": true, "full": false, "lastUpdated": 1772808031}}, {"type": "Feature", "geometry": {"type": "Point", "coordinates": [5.857522, 51.823721]}, "properties": {"uuid": "1bf6593d-13df-4403-8a50-9e0cf3060bc4", "name": "RUNUMC P3 vLeydenlaan/Descartesdreef", "municipality": "Onbekend", "operator": "Nijmegen", "capacity": 166, "vacantSpaces": -45, "occupancyPercent": 127.1, "open": true, "full": true, "lastUpdated": 1772808173}}, {"type": "Feature", "geometry": {"type": "Point", "coordinates": [5.86656, 51.847434]}, "properties": {"uuid": "84af4dc6-992d-40dd-a6e1-a1900ea7961f", "name": "P6 Parkeergarage Eiermarkt", "municipality": "Nijmegen", "operator": "Nijmegen", "capacity": 401, "vacantSpaces": 114, "occupancyPercent": 71.6, "open": true, "full": false, "lastUpdated": 1772808031}}, {"type": "Feature", "geometry": {"type": "Point", "coordinates": [5.62334, 52.350905]}, "properties": {"uuid": "3fca9aca-4819-405f-9fa8-bcf5f0be4ed9", "name": "Terrein P9 Scheepssingel (Harderwijk)", "municipality": "Harderwijk", "operator": "Harderwijk", "capacity": 95, "vacantSpaces": 12, "occupancyPercent": 87.4, "open": true, "full": false, "lastUpdated": 1772808034}}, {"type": "Feature", "geometry": {"type": "Point", "coordinates": [4.845331, 52.379336]}, "properties": {"uuid": "ff69524b-a4b1-4c65-85c1-b45c2ce5b144", "name": "P+R Bos en Lommer (Amsterdam)", "municipality": "Amsterdam", "operator": "Amsterdam", "capacity": 250, "vacantSpaces": 0, "occupancyPercent": 100.0, "open": true, "full": false, "lastUpdated": 1772808272}}, {"type": "Feature", "geometry": {"type": "Point", "coordinates": [4.90879, 52.369774]}, "properties": {"uuid": "fb7d42b2-a4e8-4d4e-bd70-7ffd6846b669", "name": "Garage Markenhoven", "municipality": "Onbekend", "operator": "Amsterdam", "capacity": 80, "vacantSpaces": 56, "occupancyPercent": 30.0, "open": true, "full": false, "lastUpdated": 1772808276}}, {"type": "Feature", "geometry": {"type": "Point", "coordinates": [4.940788, 52.314024]}, "properties": {"uuid": "fcfb18e3-6c2f-46d4-a5df-49b8aa9cdf57", "name": "GAR055P01 Garage P1-Arena", "municipality": "Onbekend", "operator": "Amsterdam", "capacity": 1810, "vacantSpaces": 1466, "occupancyPercent": 19.0, "open": true, "full": false, "lastUpdated": 1772808278}}, {"type": "Feature", "geometry": {"type": "Point", "coordinates": [4.892451, 52.369995]}, "properties": {"uuid": "16223a5c-6114-432d-98ab-5698d3c2d7cc", "name": "GAR061RKN Rokingarage", "municipality": "Onbekend", "operator": "Amsterdam", "capacity": 114, "vacantSpaces": 17, "occupancyPercent": 85.1, "open": true, "full": false, "lastUpdated": 1772808271}}, {"type": "Feature", "geometry": {"type": "Point", "coordinates": [5.865949, 51.821915]}, "properties": {"uuid": "4297dbaa-661c-42d2-8d86-623af182bc74", "name": "RUNUMC P4 Reinier Postlaan", "municipality": "Onbekend", "operator": "Nijmegen", "capacity": 94, "vacantSpaces": 68, "occupancyPercent": 27.7, "open": true, "full": false, "lastUpdated": 1772808203}}, {"type": "Feature", "geometry": {"type": "Point", "coordinates": [5.85737, 51.842178]}, "properties": {"uuid": "96ec46a4-8089-49a8-8ca4-df67a5d0bdc1", "name": "P1 Parkeergarage Keizer Karel", "municipality": "Nijmegen", "operator": "Nijmegen", "capacity": 684, "vacantSpaces": 315, "occupancyPercent": 53.9, "open": true, "full": false, "lastUpdated": 1772808007}}, {"type": "Feature", "geometry": {"type": "Point", "coordinates": [4.941235, 52.311676]}, "properties": {"uuid": "e0f088ad-f1ee-40c4-ae79-170aa0784dd9", "name": "Garage P5 Villa ArenA (Amsterdam)", "municipality": "Amsterdam", "operator": "Amsterdam", "capacity": 767, "vacantSpaces": 663, "occupancyPercent": 13.6, "open": true, "full": false, "lastUpdated": 1772808250}}, {"type": "Feature", "geometry": {"type": "Point", "coordinates": [4.934017, 52.404695]}, "properties": {"uuid": "57f24936-b0fb-452f-8d95-337583a5ae4b", "name": "GAR042PRN P&R Noord", "municipality": "Onbekend", "operator": "Amsterdam", "capacity": 409, "vacantSpaces": 59, "occupancyPercent": 85.6, "open": true, "full": false, "lastUpdated": 1772808278}}, {"type": "Feature", "geometry": {"type": "Point", "coordinates": [4.88717, 52.35575]}, "properties": {"uuid": "35870b94-7c7e-4f95-b36e-7923b0fe837f", "name": "GAR036CUY Albert Cuypgarage", "municipality": "Onbekend", "operator": "Amsterdam", "capacity": 600, "vacantSpaces": 98, "occupancyPercent": 83.7, "open": true, "full": false, "lastUpdated": 1772808279}}, {"type": "Feature", "geometry": {"type": "Point", "coordinates": [4.967026, 52.345229]}, "properties": {"uuid": "40367d76-9ba1-4257-b954-f5f58edf144e", "name": "P+R Station Diemen (Diemen)", "municipality": "Diemen", "operator": "Diemen", "capacity": 112, "vacantSpaces": 83, "occupancyPercent": 25.9, "open": true, "full": false, "lastUpdated": 1772808067}}, {"type": "Feature", "geometry": {"type": "Point", "coordinates": [4.890092, 52.339299]}, "properties": {"uuid": "0ab22af9-911d-4cfb-9ac5-6c327aa48be2", "name": "P+R RAI (Amsterdam)", "municipality": "Amsterdam", "operator": "Amsterdam", "capacity": 678, "vacantSpaces": 0, "occupancyPercent": 100.0, "open": true, "full": false, "lastUpdated": 1772808060}}, {"type": "Feature", "geometry": {"type": "Point", "coordinates": [4.855038, 52.344565]}, "properties": {"uuid": "c783d164-e1ce-4782-9552-eac48b1b100d", "name": "P+R Olympisch Stadion (Amsterdam)", "municipality": "Amsterdam", "operator": "Amsterdam", "capacity": 200, "vacantSpaces": 12, "occupancyPercent": 94.0, "open": true, "full": false, "lastUpdated": 1772808270}}, {"type": "Feature", "geometry": {"type": "Point", "coordinates": [4.354602, 52.010766]}, "properties": {"uuid": "c6fa5861-abde-41af-8f00-14c188566168", "name": "Phoenixgarage (Delft)", "municipality": "Delft", "operator": "Delft", "capacity": 201, "vacantSpaces": 46, "occupancyPercent": 77.1, "open": true, "full": false, "lastUpdated": 1772808271}}, {"type": "Feature", "geometry": {"type": "Point", "coordinates": [4.902315, 52.368027]}, "properties": {"uuid": "3f65bc8e-2a1b-4be2-ae4d-a38cfa9fdb00", "name": "Garage Muziektheater", "municipality": "Onbekend", "operator": "Amsterdam", "capacity": 209, "vacantSpaces": 145, "occupancyPercent": 30.6, "open": true, "full": false, "lastUpdated": 1772808276}}, {"type": "Feature", "geometry": {"type": "Point", "coordinates": [4.316002, 52.080416]}, "properties": {"uuid": "1b96b5df-841f-400b-ba2d-7cff51a41d02", "name": "Garage Pleingarage (Den Haag)", "municipality": "Den Haag", "operator": "'s-Gravenhage", "capacity": 220, "vacantSpaces": 133, "occupancyPercent": 39.5, "open": true, "full": false, "lastUpdated": "1772441224"}}, {"type": "Feature", "geometry": {"type": "Point", "coordinates": [4.884537, 52.384982]}, "properties": {"uuid": "55fb619f-465f-4b1d-80d5-db613ae39e58", "name": "Garage Willemspoort", "municipality": "Onbekend", "operator": "Amsterdam", "capacity": 165, "vacantSpaces": 32, "occupancyPercent": 80.6, "open": true, "full": false, "lastUpdated": 1772808276}}, {"type": "Feature", "geometry": {"type": "Point", "coordinates": [4.363065, 52.008015]}, "properties": {"uuid": "333f3516-1869-43fc-a84a-24c2356049b9", "name": "Zuidpoortgarage (Delft)", "municipality": "Delft", "operator": "Delft", "capacity": 810, "vacantSpaces": 307, "occupancyPercent": 62.1, "open": true, "full": false, "lastUpdated": 1772808271}}, {"type": "Feature", "geometry": {"type": "Point", "coordinates": [4.662503, 51.811689]}, "properties": {"uuid": "fe585239-852e-4f52-84e8-56eda8239a8f", "name": "Garage Spuihaven (Dordrecht)", "municipality": "Dordrecht", "operator": "Dordrecht", "capacity": 289, "vacantSpaces": 140, "occupancyPercent": 51.6, "open": true, "full": false, "lastUpdated": "1744018320"}}, {"type": "Feature", "geometry": {"type": "Point", "coordinates": [4.349818, 52.014884]}, "properties": {"uuid": "a5035792-66f7-491c-8c99-0b6c7e49811d", "name": "Prinsenhofgarage", "municipality": "Onbekend", "operator": "Delft", "capacity": 650, "vacantSpaces": 262, "occupancyPercent": 59.7, "open": true, "full": false, "lastUpdated": 1772808271}}, {"type": "Feature", "geometry": {"type": "Point", "coordinates": [4.861061, 52.3366]}, "properties": {"uuid": "4a9684bf-f532-4248-9f43-1334233dc5d5", "name": "P+R VUmc (Amsterdam)", "municipality": "Amsterdam", "operator": "Amsterdam", "capacity": 449, "vacantSpaces": 274, "occupancyPercent": 39.0, "open": false, "full": false, "lastUpdated": 1772808270}}, {"type": "Feature", "geometry": {"type": "Point", "coordinates": [4.940788, 52.314024]}, "properties": {"uuid": "7035fbb3-74a2-43e9-b873-e8d7ddb03fd3", "name": "P+R ArenA (Amsterdam)", "municipality": "Amsterdam", "operator": "Amsterdam", "capacity": 1810, "vacantSpaces": 1466, "occupancyPercent": 19.0, "open": true, "full": false, "lastUpdated": 1772808274}}, {"type": "Feature", "geometry": {"type": "Point", "coordinates": [4.908907, 52.376483]}, "properties": {"uuid": "17ec5a7f-2d59-40e7-a32a-3060ee718a3b", "name": "Parkeergarage Oosterdok (Amsterdam)", "municipality": "Onbekend", "operator": "Amsterdam", "capacity": 1800, "vacantSpaces": 1342, "occupancyPercent": 25.4, "open": true, "full": false, "lastUpdated": 1772808270}}, {"type": "Feature", "geometry": {"type": "Point", "coordinates": [4.51172, 51.896932]}, "properties": {"uuid": "31938897-d183-426d-ad6b-0c613a147cea", "name": "Garage Colosseumweg", "municipality": "Rotterdam", "operator": "Rotterdam", "capacity": 153, "vacantSpaces": 153, "occupancyPercent": 0.0, "open": true, "full": false, "lastUpdated": 1765550010}}, {"type": "Feature", "geometry": {"type": "Point", "coordinates": [4.676626, 51.817199]}, "properties": {"uuid": "5b3d8f1d-67f8-499e-a35c-92f3b181bfa1", "name": "Garage Riedijkshaven (Dordrecht)", "municipality": "Dordrecht", "operator": "Dordrecht", "capacity": 20, "vacantSpaces": 13, "occupancyPercent": 35.0, "open": true, "full": false, "lastUpdated": "1744018321"}}, {"type": "Feature", "geometry": {"type": "Point", "coordinates": [4.365997, 52.014289]}, "properties": {"uuid": "c4172abb-8ad1-446a-8c35-ddb310d1a0f9", "name": "Marktgarage (Delft)", "municipality": "Delft", "operator": "Delft", "capacity": 325, "vacantSpaces": 219, "occupancyPercent": 32.6, "open": true, "full": false, "lastUpdated": 1772808271}}, {"type": "Feature", "geometry": {"type": "Point", "coordinates": [4.482425, 51.924172]}, "properties": {"uuid": "48383bbe-e212-4903-bfd2-440846d80059", "name": "Garage Meent", "municipality": "Rotterdam", "operator": "Rotterdam", "capacity": 332, "vacantSpaces": 218, "occupancyPercent": 34.3, "open": true, "full": false, "lastUpdated": 1772808007}}, {"type": "Feature", "geometry": {"type": "Point", "coordinates": [4.492372, 51.921755]}, "properties": {"uuid": "dc96d900-8446-4e99-8a09-dd60da167fc8", "name": "Garage Kiphof", "municipality": "Rotterdam", "operator": "Rotterdam", "capacity": 174, "vacantSpaces": 138, "occupancyPercent": 20.7, "open": true, "full": false, "lastUpdated": 1772808007}}, {"type": "Feature", "geometry": {"type": "Point", "coordinates": [6.890873, 52.231866]}, "properties": {"uuid": "335d508f-cb75-480d-b034-b30f128fccce", "name": "Parkeergarage Brouwerij", "municipality": "Enschede", "operator": "Enschede", "capacity": 300, "vacantSpaces": 233, "occupancyPercent": 22.3, "open": true, "full": false, "lastUpdated": "1751870873"}}, {"type": "Feature", "geometry": {"type": "Point", "coordinates": [4.569489, 51.885571]}, "properties": {"uuid": "d9be5735-e8a0-4f62-9712-740bea0c2dd9", "name": "P+R Beverwaard (Rotterdam)", "municipality": "Rotterdam", "operator": "Rotterdam", "capacity": 508, "vacantSpaces": 450, "occupancyPercent": 11.4, "open": true, "full": false, "lastUpdated": 1772808007}}, {"type": "Feature", "geometry": {"type": "Point", "coordinates": [4.662503, 51.811689]}, "properties": {"uuid": "01e2fd1b-550b-40e1-b9fe-5373a15d88a0", "name": "Parkeergarage Achterom", "municipality": "Dordrecht", "operator": "Dordrecht", "capacity": 275, "vacantSpaces": 217, "occupancyPercent": 21.1, "open": true, "full": false, "lastUpdated": "1744018321"}}, {"type": "Feature", "geometry": {"type": "Point", "coordinates": [4.828007, 52.43872]}, "properties": {"uuid": "b3b3f9ec-e94e-4923-8865-53c9c5f7aeaf", "name": "Parkeerterrein de Burcht (Zaanstad)", "municipality": "Zaanstad", "operator": "Zaanstad", "capacity": 236, "vacantSpaces": 236, "occupancyPercent": 0.0, "open": true, "full": false, "lastUpdated": 1772808030}}, {"type": "Feature", "geometry": {"type": "Point", "coordinates": [4.470506, 51.923057]}, "properties": {"uuid": "fa25b695-5055-40a5-9930-ac2aa77ba975", "name": "Garage Schouwburgplein 1", "municipality": "Rotterdam", "operator": "Rotterdam", "capacity": 528, "vacantSpaces": 238, "occupancyPercent": 54.9, "open": true, "full": false, "lastUpdated": 1772808007}}, {"type": "Feature", "geometry": {"type": "Point", "coordinates": [5.335747, 51.677949]}, "properties": {"uuid": "b4d2898e-6b9d-4b5d-b0a0-8a11222382c5", "name": "Transferium Pettelaarpark", "municipality": "'s-Hertogenbosch", "operator": "'s-Hertogenbosch", "capacity": 450, "vacantSpaces": 412, "occupancyPercent": 8.4, "open": true, "full": false, "lastUpdated": "1751870882"}}, {"type": "Feature", "geometry": {"type": "Point", "coordinates": [4.372793, 51.908207]}, "properties": {"uuid": "ed205aff-9f9b-4f16-b649-76b53971e4d7", "name": "P+R Schiedam Vijfsluizen (Schiedam)", "municipality": "Schiedam", "operator": "Schiedam", "capacity": 88, "vacantSpaces": 0, "occupancyPercent": 100.0, "open": true, "full": true, "lastUpdated": 1772762460}}, {"type": "Feature", "geometry": {"type": "Point", "coordinates": [4.470409, 51.922799]}, "properties": {"uuid": "bae90cb2-90cc-4ef7-9752-672ef216a52c", "name": "Garage Schouwburgplein 2", "municipality": "Rotterdam", "operator": "Rotterdam", "capacity": 517, "vacantSpaces": 416, "occupancyPercent": 19.5, "open": true, "full": false, "lastUpdated": 1772808007}}, {"type": "Feature", "geometry": {"type": "Point", "coordinates": [5.271441, 51.685394]}, "properties": {"uuid": "1e0fbf8b-5e3a-4ee4-96df-6206c2bac453", "name": "Transferium Deutersestraat", "municipality": "'s-Hertogenbosch", "operator": "'s-Hertogenbosch", "capacity": 620, "vacantSpaces": 570, "occupancyPercent": 8.1, "open": true, "full": false, "lastUpdated": "1751870882"}}, {"type": "Feature", "geometry": {"type": "Point", "coordinates": [5.076497, 51.539492]}, "properties": {"uuid": "85e5a169-e559-4ba0-aeb7-7d6522dfd374", "name": "Parkeergarage Stappegoor (Tilburg)", "municipality": "Tilburg", "operator": "Tilburg", "capacity": 1166, "vacantSpaces": 1087, "occupancyPercent": 6.8, "open": true, "full": false, "lastUpdated": 1772808031}}, {"type": "Feature", "geometry": {"type": "Point", "coordinates": [5.093035, 51.558915]}, "properties": {"uuid": "da570813-b3f6-4676-b5d3-4bb8e759eb50", "name": "Parkeergarage 013-Tivoli (Tilburg)", "municipality": "Tilburg", "operator": "Tilburg", "capacity": 480, "vacantSpaces": 373, "occupancyPercent": 22.3, "open": true, "full": false, "lastUpdated": 1772808031}}, {"type": "Feature", "geometry": {"type": "Point", "coordinates": [4.533083, 51.894989]}, "properties": {"uuid": "574e6027-47e9-45eb-bcc1-01a9d1a344f7", "name": "P+R Noorderhelling (Rotterdam)", "municipality": "Rotterdam", "operator": "Rotterdam", "capacity": 494, "vacantSpaces": 363, "occupancyPercent": 26.5, "open": true, "full": false, "lastUpdated": 1772808007}}, {"type": "Feature", "geometry": {"type": "Point", "coordinates": [5.103975, 52.092672]}, "properties": {"uuid": "551be64d-fd3d-4f13-8afd-fc2b0186e67b", "name": "Garage Kop van Lombok", "municipality": "Utrecht", "operator": "P1", "capacity": 170, "vacantSpaces": 16, "occupancyPercent": 90.6, "open": true, "full": false, "lastUpdated": 1772808008}}, {"type": "Feature", "geometry": {"type": "Point", "coordinates": [5.126233, 52.09805]}, "properties": {"uuid": "ed1ecb9f-bbf1-4578-97c7-16cd3ed8b4da", "name": "Garage De Grifthoek (Utrecht)", "municipality": "Utrecht", "operator": "P1", "capacity": 230, "vacantSpaces": 86, "occupancyPercent": 62.6, "open": true, "full": false, "lastUpdated": 1772808008}}, {"type": "Feature", "geometry": {"type": "Point", "coordinates": [5.113256, 52.089804]}, "properties": {"uuid": "200e0f50-57f5-4cb8-9a46-e172ed735a86", "name": "Garage P3 Radboud (Utrecht)", "municipality": "Utrecht", "operator": "Interparking", "capacity": 416, "vacantSpaces": 307, "occupancyPercent": 26.2, "open": true, "full": false, "lastUpdated": 1772808033}}, {"type": "Feature", "geometry": {"type": "Point", "coordinates": [4.431611, 52.243867]}, "properties": {"uuid": "8c237822-2d60-4446-b5cd-8f33cccb26fc", "name": "Terrein Vomar Bomstraat (Noordwijk)", "municipality": "Noordwijk", "operator": "Centrum Parking", "capacity": 240, "vacantSpaces": 170, "occupancyPercent": 29.2, "open": true, "full": false, "lastUpdated": 1772808030}}, {"type": "Feature", "geometry": {"type": "Point", "coordinates": [5.04937, 52.642]}, "properties": {"uuid": "ad408289-258a-4e66-997b-06944563a84c", "name": "Garage Schouwburg het Park (Hoorn)", "municipality": "Hoorn", "operator": "InPublic Ventures B.V.", "capacity": 120, "vacantSpaces": 95, "occupancyPercent": 20.8, "open": true, "full": false, "lastUpdated": 1772808029}}, {"type": "Feature", "geometry": {"type": "Point", "coordinates": [6.1588, 52.254732]}, "properties": {"uuid": "9939a414-628f-4b60-8068-f7731ea5f31a", "name": "Centrumgarage (Deventer)", "municipality": "Deventer", "operator": "Centrumgarage", "capacity": 481, "vacantSpaces": 114, "occupancyPercent": 76.3, "open": true, "full": false, "lastUpdated": 1772808000}}, {"type": "Feature", "geometry": {"type": "Point", "coordinates": [5.322, 51.699862]}, "properties": {"uuid": "f3e46038-6165-4e84-ae86-75a1b26bf6f1", "name": "Transferium De Vliert", "municipality": "'s-Hertogenbosch", "operator": "'s-Hertogenbosch", "capacity": 700, "vacantSpaces": 692, "occupancyPercent": 1.1, "open": true, "full": false, "lastUpdated": "1751870882"}}, {"type": "Feature", "geometry": {"type": "Point", "coordinates": [5.877922, 51.099404]}, "properties": {"uuid": "54544081-ae6b-4e18-bbf3-6833becce81f", "name": "P+R Stationsweg (Echt)", "municipality": "Echt", "operator": "Nederlandse Spoorwegen", "capacity": 98, "vacantSpaces": 82, "occupancyPercent": 16.3, "open": true, "full": false, "lastUpdated": 1639497702}}, {"type": "Feature", "geometry": {"type": "Point", "coordinates": [5.930096, 50.886421]}, "properties": {"uuid": "13d9d2fe-1c63-43a7-90ea-4837bd3662ca", "name": "P+R Jeustraat (Voerendaal)", "municipality": "Voerendaal", "operator": "Nederlandse Spoorwegen", "capacity": 52, "vacantSpaces": 44, "occupancyPercent": 15.4, "open": true, "full": false, "lastUpdated": 1639497702}}, {"type": "Feature", "geometry": {"type": "Point", "coordinates": [5.786335, 50.946975]}, "properties": {"uuid": "6b153ac5-9aee-4758-a5a3-7e92a2b98eab", "name": "P+R Aan de drie heren (Beek)", "municipality": "Beek", "operator": "Nederlandse Spoorwegen", "capacity": 121, "vacantSpaces": 121, "occupancyPercent": 0.0, "open": true, "full": false, "lastUpdated": 1639497701}}, {"type": "Feature", "geometry": {"type": "Point", "coordinates": [4.89279, 52.085667]}, "properties": {"uuid": "aac1824c-b958-4abe-b311-5e25a334b940", "name": "P + R staton Woerden", "municipality": "Onbekend", "operator": "Nederlandse Spoorwegen", "capacity": 172, "vacantSpaces": null, "occupancyPercent": null, "open": null, "full": null, "lastUpdated": null}}, {"type": "Feature", "geometry": {"type": "Point", "coordinates": [5.574509, 52.045486]}, "properties": {"uuid": "307d9fdb-0c8a-4362-943d-aa33adecaa14", "name": "P + R station Veenendaal-De Klomp Zuid", "municipality": "Onbekend", "operator": "Nederlandse Spoorwegen", "capacity": 105, "vacantSpaces": 100, "occupancyPercent": 4.8, "open": true, "full": false, "lastUpdated": 1766561808}}, {"type": "Feature", "geometry": {"type": "Point", "coordinates": [5.11464, 52.090173]}, "properties": {"uuid": "70abd541-a025-4b29-b99c-0a96a6f23a06", "name": "Garage P6 Rijnkade (Utrecht)", "municipality": "Utrecht", "operator": "Interparking", "capacity": 279, "vacantSpaces": 279, "occupancyPercent": 0.0, "open": true, "full": true, "lastUpdated": 1772808033}}, {"type": "Feature", "geometry": {"type": "Point", "coordinates": [5.113454, 52.091459]}, "properties": {"uuid": "552a9b88-f367-42ba-a429-0abdafd14886", "name": "Garage P5 Vredenburg (Utrecht)", "municipality": "Utrecht", "operator": "Interparking", "capacity": 1238, "vacantSpaces": 642, "occupancyPercent": 48.1, "open": true, "full": false, "lastUpdated": 1772808033}}, {"type": "Feature", "geometry": {"type": "Point", "coordinates": [4.259281, 52.10151]}, "properties": {"uuid": "6f411bd5-e76b-449b-a390-bb7e5d7e1c0e", "name": "Garage Strand (Den Haag)", "municipality": "Den Haag", "operator": "BKS Parking", "capacity": 1790, "vacantSpaces": 1704, "occupancyPercent": 4.8, "open": "true", "full": "false", "lastUpdated": 1639497736}}, {"type": "Feature", "geometry": {"type": "Point", "coordinates": [5.113428, 52.089612]}, "properties": {"uuid": "c479f58b-1683-4321-adff-3e54ad468e59", "name": "Garage Hoog Catharijne P2 (Utrecht)", "municipality": "Utrecht", "operator": "Interparking", "capacity": 312, "vacantSpaces": 255, "occupancyPercent": 18.3, "open": true, "full": false, "lastUpdated": 1772808033}}, {"type": "Feature", "geometry": {"type": "Point", "coordinates": [4.358066, 51.865992]}, "properties": {"uuid": "a4265c3c-b33d-4f83-973b-bf7eb97958e2", "name": "Garage Hoogvliet Centrum", "municipality": "Rotterdam", "operator": "Rotterdam", "capacity": 147, "vacantSpaces": 135, "occupancyPercent": 8.2, "open": true, "full": false, "lastUpdated": 1765550010}}, {"type": "Feature", "geometry": {"type": "Point", "coordinates": [5.063568, 52.642706]}, "properties": {"uuid": "bc09b9a5-a929-4b13-bd54-3a92fc3b7b89", "name": "Garage 't Jeudje (Hoorn)", "municipality": "Hoorn", "operator": "InPublic Ventures B.V.", "capacity": 210, "vacantSpaces": 54, "occupancyPercent": 74.3, "open": true, "full": false, "lastUpdated": 1772808029}}, {"type": "Feature", "geometry": {"type": "Point", "coordinates": [4.868238, 52.368096]}, "properties": {"uuid": "a60db76c-4035-4c4d-9893-5e3696476a89", "name": "Garage De Hallen", "municipality": "Onbekend", "operator": "Amsterdam", "capacity": 328, "vacantSpaces": 259, "occupancyPercent": 21.0, "open": true, "full": false, "lastUpdated": 1772808276}}, {"type": "Feature", "geometry": {"type": "Point", "coordinates": [4.458464, 51.533183]}, "properties": {"uuid": "b7fd59d7-ef6e-4b8b-804d-42ba6bb98dbf", "name": "Garage Biggelaar (Roosendaal)", "municipality": "Roosendaal", "operator": "Roosendaal", "capacity": 371, "vacantSpaces": 282, "occupancyPercent": 24.0, "open": true, "full": false, "lastUpdated": 1772808032}}, {"type": "Feature", "geometry": {"type": "Point", "coordinates": [4.45237, 51.530499]}, "properties": {"uuid": "500f53b7-d700-4f9d-818b-72951caf4d40", "name": "Garage Liga (Roosendaal)", "municipality": "Roosendaal", "operator": "Roosendaal", "capacity": 150, "vacantSpaces": 125, "occupancyPercent": 16.7, "open": false, "full": false, "lastUpdated": 1772808032}}, {"type": "Feature", "geometry": {"type": "Point", "coordinates": [4.45917, 51.531157]}, "properties": {"uuid": "02f38b89-a5a7-4df6-8e87-5de543d84440", "name": "Garage Nieuwe Markt (Roosendaal)", "municipality": "Roosendaal", "operator": "Roosendaal", "capacity": 439, "vacantSpaces": 244, "occupancyPercent": 44.4, "open": true, "full": false, "lastUpdated": 1772808032}}, {"type": "Feature", "geometry": {"type": "Point", "coordinates": [5.735898, 50.897367]}, "properties": {"uuid": "c5e2a674-a5c3-4c74-9b84-377b3dfaf146", "name": "P+R Spoorstraat (Bunde)", "municipality": "Bunde", "operator": "Nederlandse Spoorwegen", "capacity": 90, "vacantSpaces": 10, "occupancyPercent": 88.9, "open": true, "full": false, "lastUpdated": 1639497702}}, {"type": "Feature", "geometry": {"type": "Point", "coordinates": [5.95347, 50.895735]}, "properties": {"uuid": "0c427131-5ed6-4901-bfad-7171ade5ac33", "name": "P+R Mijnspoorweg (Heerlen)", "municipality": "Heerlen", "operator": "Nederlandse Spoorwegen", "capacity": 49, "vacantSpaces": 45, "occupancyPercent": 8.2, "open": true, "full": false, "lastUpdated": 1639497704}}, {"type": "Feature", "geometry": {"type": "Point", "coordinates": [5.878418, 51.100505]}, "properties": {"uuid": "9706dda7-3909-4b75-be28-b3d4e9ee09f7", "name": "P+R Stationsweg (Echt)", "municipality": "Echt", "operator": "Nederlandse Spoorwegen", "capacity": 54, "vacantSpaces": 49, "occupancyPercent": 9.3, "open": true, "full": false, "lastUpdated": 1639497701}}, {"type": "Feature", "geometry": {"type": "Point", "coordinates": [5.077499, 51.560868]}, "properties": {"uuid": "1ff340af-6c8d-47b9-ac0a-4b64402eeb90", "name": "Parkeergarage Knegtel (Tilburg)", "municipality": "Tilburg", "operator": "Tilburg", "capacity": 470, "vacantSpaces": 331, "occupancyPercent": 29.6, "open": true, "full": false, "lastUpdated": 1772808003}}, {"type": "Feature", "geometry": {"type": "Point", "coordinates": [4.343305, 51.911554]}, "properties": {"uuid": "953eec27-3077-4c28-84df-0d4248d45b08", "name": "Garage Hoogstraat (Vlaardingen)", "municipality": "Vlaardingen", "operator": "BKS Parking", "capacity": 153, "vacantSpaces": 107, "occupancyPercent": 30.1, "open": "true", "full": "false", "lastUpdated": 1639497732}}, {"type": "Feature", "geometry": {"type": "Point", "coordinates": [4.43185, 51.94893]}, "properties": {"uuid": "a63f0bb3-1a09-4d42-862b-6da2354178f0", "name": "P1 Lang Parkeren", "municipality": "Onbekend", "operator": "Rotterdam The Hague Airport", "capacity": 1224, "vacantSpaces": 1106, "occupancyPercent": 9.6, "open": true, "full": false, "lastUpdated": 1765282653}}, {"type": "Feature", "geometry": {"type": "Point", "coordinates": [5.279243, 52.394629]}, "properties": {"uuid": "a8b3ecad-d648-4a1b-b559-941d58b899f0", "name": "Santiagogarage (Almere Buiten)", "municipality": "Almere Buiten", "operator": "P1", "capacity": 334, "vacantSpaces": 301, "occupancyPercent": 9.9, "open": true, "full": false, "lastUpdated": 1772808030}}, {"type": "Feature", "geometry": {"type": "Point", "coordinates": [4.892585, 52.357512]}, "properties": {"uuid": "eb79ab5a-abd5-4a48-8f6c-e21dbfe545d2", "name": "Garage Heinekenplein (Amsterdam)", "municipality": "Amsterdam", "operator": "APCOA Parking", "capacity": 166, "vacantSpaces": 166, "occupancyPercent": 0.0, "open": true, "full": false, "lastUpdated": 1772808279}}, {"type": "Feature", "geometry": {"type": "Point", "coordinates": [4.679577, 51.815974]}, "properties": {"uuid": "367449da-07de-4eec-be6e-79719ca533f8", "name": "Garage Energiehuis (Dordrecht)", "municipality": "Dordrecht", "operator": "Dordrecht", "capacity": 276, "vacantSpaces": 205, "occupancyPercent": 25.7, "open": true, "full": false, "lastUpdated": "1744018353"}}, {"type": "Feature", "geometry": {"type": "Point", "coordinates": [4.66003, 51.811779]}, "properties": {"uuid": "1558c63d-0d97-40f3-9a0f-5f11e65875d7", "name": "Garage Veemarkt (Dordrecht)", "municipality": "Dordrecht", "operator": "Dordrecht", "capacity": 528, "vacantSpaces": 528, "occupancyPercent": 0.0, "open": true, "full": false, "lastUpdated": "1674118048"}}, {"type": "Feature", "geometry": {"type": "Point", "coordinates": [4.315006, 52.076747]}, "properties": {"uuid": "c8a59b23-d7b1-4595-b2f9-3f5bb9b5cb9e", "name": "Garage Markthof (Den Haag)", "municipality": "Den Haag", "operator": "'s-Gravenhage", "capacity": 100, "vacantSpaces": 74, "occupancyPercent": 26.0, "open": true, "full": false, "lastUpdated": 1772808234}}, {"type": "Feature", "geometry": {"type": "Point", "coordinates": [5.614572, 52.345499]}, "properties": {"uuid": "ce5aa269-cd07-494f-82a3-ea7a633349be", "name": "Terrein P19 Westeinde (Harderwijk)", "municipality": "Harderwijk", "operator": "Harderwijk", "capacity": 135, "vacantSpaces": 14, "occupancyPercent": 89.6, "open": true, "full": false, "lastUpdated": 1772808034}}, {"type": "Feature", "geometry": {"type": "Point", "coordinates": [4.550463, 51.953005]}, "properties": {"uuid": "d6ea05f4-e484-4db8-84cd-a0ac20db1f1f", "name": "P+R Alexander (Rotterdam)", "municipality": "Rotterdam", "operator": "Rotterdam", "capacity": 398, "vacantSpaces": 269, "occupancyPercent": 32.4, "open": true, "full": false, "lastUpdated": 1772808007}}, {"type": "Feature", "geometry": {"type": "Point", "coordinates": [4.457441, 51.955583]}, "properties": {"uuid": "328cbed1-dfe1-4984-8cf6-4b4d9671b168", "name": "P+R Meijersplein (Rotterdam)", "municipality": "Rotterdam", "operator": "Rotterdam", "capacity": 492, "vacantSpaces": 345, "occupancyPercent": 29.9, "open": true, "full": false, "lastUpdated": 1765550010}}, {"type": "Feature", "geometry": {"type": "Point", "coordinates": [4.751839, 52.632194]}, "properties": {"uuid": "c06e8266-5df0-411e-8b7d-3027530f2661", "name": "Parkeergarage Karperton", "municipality": "Alkmaar", "operator": "Alkmaar", "capacity": 420, "vacantSpaces": 189, "occupancyPercent": 55.0, "open": true, "full": false, "lastUpdated": 1772808005}}, {"type": "Feature", "geometry": {"type": "Point", "coordinates": [4.745139, 52.634197]}, "properties": {"uuid": "e7f0ddfb-8b9f-4f47-a274-076807a63a5b", "name": "Parkeergarage Vest", "municipality": "Alkmaar", "operator": "Alkmaar", "capacity": 65, "vacantSpaces": 10, "occupancyPercent": 84.6, "open": true, "full": false, "lastUpdated": 1772808005}}, {"type": "Feature", "geometry": {"type": "Point", "coordinates": [4.470421, 51.913874]}, "properties": {"uuid": "ac1a8242-ea7d-48ff-8935-9fbe07691d77", "name": "Garage Museumpark", "municipality": "Rotterdam", "operator": "Rotterdam", "capacity": 175, "vacantSpaces": 57, "occupancyPercent": 67.4, "open": true, "full": false, "lastUpdated": 1772438797}}, {"type": "Feature", "geometry": {"type": "Point", "coordinates": [4.485195, 51.913787]}, "properties": {"uuid": "9386ab02-ee17-4fd7-9580-93115e203a31", "name": "Garage De Boompjes", "municipality": "Rotterdam", "operator": "Rotterdam", "capacity": 323, "vacantSpaces": 218, "occupancyPercent": 32.5, "open": true, "full": false, "lastUpdated": 1772808007}}, {"type": "Feature", "geometry": {"type": "Point", "coordinates": [4.48387, 51.910553]}, "properties": {"uuid": "b702aa0d-1392-4b9c-a158-5ead5179f9ad", "name": "Garage Erasmusbrug", "municipality": "Rotterdam", "operator": "Rotterdam", "capacity": 277, "vacantSpaces": 173, "occupancyPercent": 37.5, "open": true, "full": false, "lastUpdated": 1772808007}}, {"type": "Feature", "geometry": {"type": "Point", "coordinates": [4.492877, 51.920983]}, "properties": {"uuid": "4988115d-7c6e-4a4a-bd9d-5605e692c2cb", "name": "Garage Oude Haven", "municipality": "Rotterdam", "operator": "Rotterdam", "capacity": 79, "vacantSpaces": 33, "occupancyPercent": 58.2, "open": true, "full": false, "lastUpdated": 1772808007}}, {"type": "Feature", "geometry": {"type": "Point", "coordinates": [4.837902, 52.389957]}, "properties": {"uuid": "2a04ec9c-2b8c-43c3-9ae4-2e1e97a2e0bb", "name": "P+R Sloterdijk (Amsterdam)", "municipality": "Amsterdam", "operator": "Amsterdam", "capacity": 190, "vacantSpaces": 70, "occupancyPercent": 63.2, "open": true, "full": false, "lastUpdated": 1772808276}}, {"type": "Feature", "geometry": {"type": "Point", "coordinates": [4.942695, 52.30627]}, "properties": {"uuid": "fb51c450-b89f-422a-b4a8-3b588c845d72", "name": "GAR029P10 P10 Zuidoost", "municipality": "Onbekend", "operator": "Amsterdam", "capacity": 1507, "vacantSpaces": 1321, "occupancyPercent": 12.3, "open": true, "full": false, "lastUpdated": 1772808276}}, {"type": "Feature", "geometry": {"type": "Point", "coordinates": [5.736096, 50.896643]}, "properties": {"uuid": "66834791-df8d-4c8b-86f3-23ce0c131c3b", "name": "P+R Spoorstraat (Bunde)", "municipality": "Bunde", "operator": "Nederlandse Spoorwegen", "capacity": 37, "vacantSpaces": 31, "occupancyPercent": 16.2, "open": true, "full": false, "lastUpdated": 1639497702}}, {"type": "Feature", "geometry": {"type": "Point", "coordinates": [5.081408, 51.554213]}, "properties": {"uuid": "1319b928-f405-4ee3-8c33-1e932e3156a4", "name": "Parkeergarage Schouwburg (Tilburg)", "municipality": "Tilburg", "operator": "Tilburg", "capacity": 285, "vacantSpaces": 176, "occupancyPercent": 38.2, "open": true, "full": false, "lastUpdated": 1772808031}}, {"type": "Feature", "geometry": {"type": "Point", "coordinates": [5.857005, 51.823656]}, "properties": {"uuid": "cba8da27-10e4-4683-8d09-93e961fa9c0a", "name": "RUNUMC P2 vLeydenlaan", "municipality": "Onbekend", "operator": "Nijmegen", "capacity": 56, "vacantSpaces": 29, "occupancyPercent": 48.2, "open": true, "full": false, "lastUpdated": 1772807943}}, {"type": "Feature", "geometry": {"type": "Point", "coordinates": [5.865989, 51.844784]}, "properties": {"uuid": "deb8f7da-0864-4019-8715-53ca185efc42", "name": "P5 Parkeergarage Mari\u00ebnburg", "municipality": "Nijmegen", "operator": "Nijmegen", "capacity": 300, "vacantSpaces": 86, "occupancyPercent": 71.3, "open": true, "full": false, "lastUpdated": 1772808030}}, {"type": "Feature", "geometry": {"type": "Point", "coordinates": [4.946282, 52.315131]}, "properties": {"uuid": "36e55fa3-48c9-4fd0-b8d9-eec160391772", "name": "GAR030P18 P18 Zuidoost", "municipality": "Onbekend", "operator": "Amsterdam", "capacity": 290, "vacantSpaces": 215, "occupancyPercent": 25.9, "open": true, "full": false, "lastUpdated": 1772808276}}, {"type": "Feature", "geometry": {"type": "Point", "coordinates": [4.945382, 52.311619]}, "properties": {"uuid": "5f86a398-fbf0-407b-8e72-8eac4b4a9b08", "name": "GAR058P06 Garage P6-Uitgaansdriehoek", "municipality": "Onbekend", "operator": "Amsterdam", "capacity": 392, "vacantSpaces": 337, "occupancyPercent": 14.0, "open": true, "full": false, "lastUpdated": 1772808268}}, {"type": "Feature", "geometry": {"type": "Point", "coordinates": [5.28975, 51.689412]}, "properties": {"uuid": "88f214e0-36e0-49d3-b6d1-f73b1413cd12", "name": "Parkeergarage Paleiskwartier", "municipality": "'s-Hertogenbosch", "operator": "'s-Hertogenbosch", "capacity": 839, "vacantSpaces": 590, "occupancyPercent": 29.7, "open": true, "full": false, "lastUpdated": "1751870882"}}, {"type": "Feature", "geometry": {"type": "Point", "coordinates": [4.93943, 52.311382]}, "properties": {"uuid": "43878fed-4dbf-4aef-a2b9-80168d11b5aa", "name": "Garage P4 Villa ArenA (Amsterdam)", "municipality": "Amsterdam", "operator": "Amsterdam", "capacity": 1067, "vacantSpaces": 1023, "occupancyPercent": 4.1, "open": true, "full": false, "lastUpdated": 1772808276}}, {"type": "Feature", "geometry": {"type": "Point", "coordinates": [5.088723, 51.555054]}, "properties": {"uuid": "0fee70b1-f479-4557-aebc-d2860d533704", "name": "Parkeergarage Emmapassage (Tilburg)", "municipality": "Tilburg", "operator": "Tilburg", "capacity": 235, "vacantSpaces": 164, "occupancyPercent": 30.2, "open": true, "full": false, "lastUpdated": 1772808031}}, {"type": "Feature", "geometry": {"type": "Point", "coordinates": [5.090045, 51.553886]}, "properties": {"uuid": "a2c37c22-fa24-4591-aa78-bd0f4fe99978", "name": "Parkeergarge Koningsplein (Tilburg)", "municipality": "Tilburg", "operator": "Tilburg", "capacity": 234, "vacantSpaces": 167, "occupancyPercent": 28.6, "open": true, "full": false, "lastUpdated": 1772808031}}, {"type": "Feature", "geometry": {"type": "Point", "coordinates": [4.397197, 52.081003]}, "properties": {"uuid": "73f63588-e4c1-4f4c-aeae-d204e2ef5b1f", "name": "Garage Damplein (Leidschendam-Voorburg)", "municipality": "Leidschendam-Voorburg", "operator": "Leidschendam-Voorburg", "capacity": 225, "vacantSpaces": 180, "occupancyPercent": 20.0, "open": true, "full": false, "lastUpdated": 1772808270}}, {"type": "Feature", "geometry": {"type": "Point", "coordinates": [6.161446, 52.256282]}, "properties": {"uuid": "45434989-3252-4c85-8731-c856b02c390c", "name": "Stationsplein", "municipality": "Deventer", "operator": "Deventer", "capacity": 159, "vacantSpaces": 73, "occupancyPercent": 54.1, "open": true, "full": false, "lastUpdated": 1772808000}}, {"type": "Feature", "geometry": {"type": "Point", "coordinates": [4.337227, 51.910687]}, "properties": {"uuid": "226e334b-3fdd-4aaa-bddf-a6b10a3c98ee", "name": "Garage Liesveld (Vlaardingen)", "municipality": "Vlaardingen", "operator": "BKS Parking", "capacity": 316, "vacantSpaces": 302, "occupancyPercent": 4.4, "open": "true", "full": "false", "lastUpdated": 1639497724}}, {"type": "Feature", "geometry": {"type": "Point", "coordinates": [4.742638, 52.63226]}, "properties": {"uuid": "46c2167d-7d65-4e5f-9e3e-6d625aa8c7b6", "name": "Garage Grote Kerk (Alkmaar)", "municipality": "Alkmaar", "operator": "APCOA Parking", "capacity": 150, "vacantSpaces": 145, "occupancyPercent": 3.3, "open": true, "full": false, "lastUpdated": 1772808006}}, {"type": "Feature", "geometry": {"type": "Point", "coordinates": [4.8916, 52.3624]}, "properties": {"uuid": "92871f2d-d779-418c-a07f-888a87447539", "name": "Garage Prins & Keizer (Amsterdam)", "municipality": "Amsterdam", "operator": "APCOA Parking", "capacity": 59, "vacantSpaces": 59, "occupancyPercent": 0.0, "open": true, "full": false, "lastUpdated": 1772808274}}, {"type": "Feature", "geometry": {"type": "Point", "coordinates": [4.890879, 52.367212]}, "properties": {"uuid": "1fc4f305-8d3f-4626-af10-a145c5834554", "name": "Garage Kalverstraat (Amsterdam)", "municipality": "Amsterdam", "operator": "ParkKing", "capacity": 76, "vacantSpaces": 33, "occupancyPercent": 56.6, "open": true, "full": false, "lastUpdated": 1738923289}}, {"type": "Feature", "geometry": {"type": "Point", "coordinates": [4.279359, 52.112066]}, "properties": {"uuid": "2e7daa83-19e3-4133-8d57-3911d7681d40", "name": "Garage Kurhaus (Den Haag)", "municipality": "Den Haag", "operator": "BKS Parking", "capacity": 238, "vacantSpaces": 224, "occupancyPercent": 5.9, "open": "true", "full": "false", "lastUpdated": 1639497736}}, {"type": "Feature", "geometry": {"type": "Point", "coordinates": [4.918906, 52.37732]}, "properties": {"uuid": "4624b92d-ddf5-419e-86bb-4983c100ff70", "name": "Garage IJ-Oever", "municipality": "Onbekend", "operator": "Amsterdam", "capacity": 78, "vacantSpaces": 75, "occupancyPercent": 3.8, "open": true, "full": false, "lastUpdated": 1772808262}}, {"type": "Feature", "geometry": {"type": "Point", "coordinates": [5.270282, 51.882779]}, "properties": {"uuid": "4209942e-00e7-491b-b4d9-09c0cc012038", "name": "P + R station Geldermalsen", "municipality": "Onbekend", "operator": "Nederlandse Spoorwegen", "capacity": 493, "vacantSpaces": null, "occupancyPercent": null, "open": null, "full": null, "lastUpdated": null}}, {"type": "Feature", "geometry": {"type": "Point", "coordinates": [4.992164, 52.171264]}, "properties": {"uuid": "e8f046ff-4785-472a-8668-f76c54d3133a", "name": "P + R station Breukelen NO P2", "municipality": "Onbekend", "operator": "Nederlandse Spoorwegen", "capacity": 352, "vacantSpaces": 930, "occupancyPercent": -164.2, "open": true, "full": false, "lastUpdated": 1772808249}}, {"type": "Feature", "geometry": {"type": "Point", "coordinates": [5.751464, 50.882452]}, "properties": {"uuid": "24190ff2-c521-4825-abd6-aa20c14d8b67", "name": "P+R Stationsstraat (Meersen)", "municipality": "Meersen", "operator": "Nederlandse Spoorwegen", "capacity": 88, "vacantSpaces": 66, "occupancyPercent": 25.0, "open": true, "full": false, "lastUpdated": 1639497702}}, {"type": "Feature", "geometry": {"type": "Point", "coordinates": [5.862456, 51.060712]}, "properties": {"uuid": "d20db70b-b980-41b2-a457-67148670b260", "name": "P+R Spoorstraat (Susteren)", "municipality": "Susteren", "operator": "Nederlandse Spoorwegen", "capacity": 27, "vacantSpaces": 11, "occupancyPercent": 59.3, "open": true, "full": false, "lastUpdated": 1639497702}}, {"type": "Feature", "geometry": {"type": "Point", "coordinates": [4.898545, 52.366163]}, "properties": {"uuid": "a63813f7-8dda-43e9-bd52-aed6675b88a8", "name": "Garage The Bank (Amsterdam)", "municipality": "Amsterdam", "operator": "ParkKing", "capacity": 56, "vacantSpaces": 55, "occupancyPercent": 1.8, "open": true, "full": false, "lastUpdated": 1772808268}}, {"type": "Feature", "geometry": {"type": "Point", "coordinates": [4.43577, 51.9468]}, "properties": {"uuid": "bdf5a796-0a4e-4385-b53d-f163f0540975", "name": "P3 Lang Parkeren", "municipality": "Onbekend", "operator": "Rotterdam The Hague Airport", "capacity": 1224, "vacantSpaces": 1106, "occupancyPercent": 9.6, "open": true, "full": false, "lastUpdated": 1765282653}}, {"type": "Feature", "geometry": {"type": "Point", "coordinates": [5.294645, 51.689372]}, "properties": {"uuid": "eab6b680-ef29-4e0a-971c-c5055fc59c19", "name": "Parkeergarage Stationsplein", "municipality": "'s-Hertogenbosch", "operator": "'s-Hertogenbosch", "capacity": 105, "vacantSpaces": 95, "occupancyPercent": 9.5, "open": true, "full": false, "lastUpdated": "1751870882"}}, {"type": "Feature", "geometry": {"type": "Point", "coordinates": [5.80145, 53.201489]}, "properties": {"uuid": "d3bd2edf-cd1f-4b3d-baee-eb37c8bc9e53", "name": "P-Oosterstraat", "municipality": "Leeuwarden", "operator": "Leeuwarden", "capacity": 250, "vacantSpaces": 183, "occupancyPercent": 26.8, "open": true, "full": false, "lastUpdated": 1772808030}}, {"type": "Feature", "geometry": {"type": "Point", "coordinates": [5.303124, 51.686748]}, "properties": {"uuid": "461a6ae3-b610-4bec-95e1-bae6755b83a3", "name": "Parkeergarage Wolvenhoek", "municipality": "'s-Hertogenbosch", "operator": "'s-Hertogenbosch", "capacity": 250, "vacantSpaces": 193, "occupancyPercent": 22.8, "open": true, "full": false, "lastUpdated": "1751870882"}}, {"type": "Feature", "geometry": {"type": "Point", "coordinates": [6.152127, 52.256485]}, "properties": {"uuid": "4639a30f-a31e-4f72-8430-49c1d8ff6be7", "name": "Parkeergarage Stadspoort - Kelder", "municipality": "Deventer", "operator": "Deventer", "capacity": 132, "vacantSpaces": 37, "occupancyPercent": 72.0, "open": true, "full": false, "lastUpdated": 1772808000}}, {"type": "Feature", "geometry": {"type": "Point", "coordinates": [4.43267, 51.94912]}, "properties": {"uuid": "41beb61e-e301-429f-b9e9-275be8325f6a", "name": "P2 Business Parking", "municipality": "Onbekend", "operator": "Rotterdam The Hague Airport", "capacity": 1224, "vacantSpaces": 1106, "occupancyPercent": 9.6, "open": true, "full": false, "lastUpdated": 1765282653}}, {"type": "Feature", "geometry": {"type": "Point", "coordinates": [4.91488, 52.377626]}, "properties": {"uuid": "ef7b7048-3c53-4877-8b4e-118656e80486", "name": "Garage Piet Hein", "municipality": "Onbekend", "operator": "Amsterdam", "capacity": 400, "vacantSpaces": 216, "occupancyPercent": 46.0, "open": true, "full": false, "lastUpdated": 1772808276}}, {"type": "Feature", "geometry": {"type": "Point", "coordinates": [5.54854, 52.019891]}, "properties": {"uuid": "5512204f-fb36-43de-a58e-1743d41ebe8d", "name": "P+R Station Veenendaal-Centrum (Veenendaal)", "municipality": "Veenendaal", "operator": "Nederlandse Spoorwegen", "capacity": 95, "vacantSpaces": 83, "occupancyPercent": 12.6, "open": true, "full": false, "lastUpdated": 1766561808}}, {"type": "Feature", "geometry": {"type": "Point", "coordinates": [5.276422, 52.393521]}, "properties": {"uuid": "707242b6-6564-43ed-b272-fab1b406a3bb", "name": "Floridagarage (Almere Buiten)", "municipality": "Almere Buiten", "operator": "P1", "capacity": 301, "vacantSpaces": 268, "occupancyPercent": 11.0, "open": true, "full": false, "lastUpdated": 1772808030}}, {"type": "Feature", "geometry": {"type": "Point", "coordinates": [5.274068, 52.395308]}, "properties": {"uuid": "2ddeebb5-39db-4a32-ae6d-eeb45bf4a5ef", "name": "Brooklyngarage (Almere Buiten)", "municipality": "Almere Buiten", "operator": "P1", "capacity": 150, "vacantSpaces": 150, "occupancyPercent": 0.0, "open": true, "full": false, "lastUpdated": 1772808030}}, {"type": "Feature", "geometry": {"type": "Point", "coordinates": [5.129327, 52.09373]}, "properties": {"uuid": "5c7a3167-55bd-441f-bd09-60e97503a603", "name": "Garage Kruisstraat (Utrecht)", "municipality": "Utrecht", "operator": "P1", "capacity": 102, "vacantSpaces": 52, "occupancyPercent": 49.0, "open": true, "full": false, "lastUpdated": 1772808008}}, {"type": "Feature", "geometry": {"type": "Point", "coordinates": [4.988606, 52.169823]}, "properties": {"uuid": "4fe55834-166f-4651-8371-d68807490125", "name": "P + R station Breukelen W P3", "municipality": "Onbekend", "operator": "Nederlandse Spoorwegen", "capacity": 250, "vacantSpaces": -1345, "occupancyPercent": 638.0, "open": true, "full": true, "lastUpdated": 1772808254}}, {"type": "Feature", "geometry": {"type": "Point", "coordinates": [5.202638, 52.130495]}, "properties": {"uuid": "fbdec230-14d1-47f6-b62f-9aedc6f87280", "name": "P + R station Bilthoven", "municipality": "Onbekend", "operator": "Nederlandse Spoorwegen", "capacity": 160, "vacantSpaces": 150, "occupancyPercent": 6.2, "open": true, "full": false, "lastUpdated": 1766561807}}, {"type": "Feature", "geometry": {"type": "Point", "coordinates": [5.308031, 51.689482]}, "properties": {"uuid": "aa548ce6-3110-4621-b3eb-ea45e5975df7", "name": "Parkeergarage St. Josephstraat", "municipality": "'s-Hertogenbosch", "operator": "'s-Hertogenbosch", "capacity": 101, "vacantSpaces": 74, "occupancyPercent": 26.7, "open": true, "full": false, "lastUpdated": "1751870882"}}, {"type": "Feature", "geometry": {"type": "Point", "coordinates": [5.11184, 52.0913]}, "properties": {"uuid": "294157b9-5428-41d8-8f3a-252193ebe97d", "name": "Garage P4 Stationsstraat (Utrecht)", "municipality": "Utrecht", "operator": "Interparking", "capacity": 382, "vacantSpaces": 320, "occupancyPercent": 16.2, "open": true, "full": false, "lastUpdated": 1772808033}}, {"type": "Feature", "geometry": {"type": "Point", "coordinates": [5.314114, 51.685325]}, "properties": {"uuid": "5d567c12-796c-4f8d-80f4-120ba32ed482", "name": "Parkeergarage St. Jan", "municipality": "'s-Hertogenbosch", "operator": "'s-Hertogenbosch", "capacity": 840, "vacantSpaces": 780, "occupancyPercent": 7.1, "open": true, "full": false, "lastUpdated": "1751870882"}}, {"type": "Feature", "geometry": {"type": "Point", "coordinates": [5.113428, 52.089612]}, "properties": {"uuid": "40212393-05d9-45a4-a287-123af9ad325a", "name": "Garage Hoog Catharijne P1 (utrecht)", "municipality": "utrecht", "operator": "Interparking", "capacity": 342, "vacantSpaces": 212, "occupancyPercent": 38.0, "open": true, "full": false, "lastUpdated": 1772808033}}, {"type": "Feature", "geometry": {"type": "Point", "coordinates": [4.287193, 52.11731]}, "properties": {"uuid": "9c6f4ec3-35ee-4801-a683-4e48cd01931f", "name": "Terrein Zwarte Pad (Den Haag)", "municipality": "Den Haag", "operator": "BKS Parking", "capacity": 333, "vacantSpaces": 318, "occupancyPercent": 4.5, "open": "true", "full": "false", "lastUpdated": 1639497736}}, {"type": "Feature", "geometry": {"type": "Point", "coordinates": [5.08898, 51.558404]}, "properties": {"uuid": "ff4ddfbf-66bf-473e-a80b-353290ed1084", "name": "Parkeergarage Pieter Vreedeplein (Tilburg)", "municipality": "Tilburg", "operator": "Tilburg", "capacity": 640, "vacantSpaces": 341, "occupancyPercent": 46.7, "open": true, "full": false, "lastUpdated": 1772808031}}, {"type": "Feature", "geometry": {"type": "Point", "coordinates": [4.453411, 51.530433]}, "properties": {"uuid": "9a2ca410-8fba-4ff7-ab8f-6f1a5398eab0", "name": "Garage Roselaar (Roosendaal)", "municipality": "Roosendaal", "operator": "Roosendaal", "capacity": 382, "vacantSpaces": 210, "occupancyPercent": 45.0, "open": true, "full": false, "lastUpdated": 1772808032}}, {"type": "Feature", "geometry": {"type": "Point", "coordinates": [4.33769, 51.907665]}, "properties": {"uuid": "97a243f4-d0d9-4224-b0c1-72a9566bb677", "name": "Garage Stadhuis (Vlaardingen)", "municipality": "Vlaardingen", "operator": "BKS Parking", "capacity": 150, "vacantSpaces": 136, "occupancyPercent": 9.3, "open": "true", "full": "false", "lastUpdated": 1639497728}}, {"type": "Feature", "geometry": {"type": "Point", "coordinates": [4.454167, 51.528407]}, "properties": {"uuid": "d13f96a4-ed41-41ae-88a1-921e9c067e3e", "name": "Garage Mill Hill (Roosendaal)", "municipality": "Roosendaal", "operator": "Roosendaal", "capacity": 90, "vacantSpaces": 61, "occupancyPercent": 32.2, "open": true, "full": false, "lastUpdated": 1772808032}}, {"type": "Feature", "geometry": {"type": "Point", "coordinates": [5.258174, 52.064487]}, "properties": {"uuid": "54612960-b8a6-4499-9f47-f7ae7c4fd2c8", "name": "P+R station Driebergen-Zeist", "municipality": "Odijkerweg, Zeist", "operator": "Nederlandse Spoorwegen", "capacity": 568, "vacantSpaces": 347, "occupancyPercent": 38.9, "open": true, "full": false, "lastUpdated": 1772808227}}, {"type": "Feature", "geometry": {"type": "Point", "coordinates": [5.874163, 50.85573]}, "properties": {"uuid": "241e35bc-be67-4ee9-9da0-71017d6a4267", "name": "P+R Baanweg (Schin op Geul)", "municipality": "Schin op Geul", "operator": "Nederlandse Spoorwegen", "capacity": 48, "vacantSpaces": 48, "occupancyPercent": 0.0, "open": true, "full": false, "lastUpdated": 1639497704}}, {"type": "Feature", "geometry": {"type": "Point", "coordinates": [5.718397, 50.873017]}, "properties": {"uuid": "c0aecf40-4df5-43b9-b8af-577fb8c681f8", "name": "P+R Station Maastricht Noord I", "municipality": "Onbekend", "operator": "Maastricht", "capacity": 340, "vacantSpaces": 197, "occupancyPercent": 42.1, "open": true, "full": false, "lastUpdated": 1727444267}}, {"type": "Feature", "geometry": {"type": "Point", "coordinates": [4.280913, 52.111699]}, "properties": {"uuid": "2cc6b90a-8460-4b11-a52e-5f9319ffd64b", "name": "Garage Nieuwe Parklaan (Den Haag)", "municipality": "Den Haag", "operator": "BKS Parking", "capacity": 499, "vacantSpaces": 473, "occupancyPercent": 5.2, "open": "true", "full": "false", "lastUpdated": 1639497736}}, {"type": "Feature", "geometry": {"type": "Point", "coordinates": [4.854937, 52.344897]}, "properties": {"uuid": "c2b50ef9-12a3-4ac5-b2b4-8bf0d896c98b", "name": "Garage Olympisch Stadion (Amsterdam)", "municipality": "Amsterdam", "operator": "P1", "capacity": 400, "vacantSpaces": 255, "occupancyPercent": 36.2, "open": true, "full": false, "lastUpdated": 1772808270}}, {"type": "Feature", "geometry": {"type": "Point", "coordinates": [5.280122, 52.394855]}, "properties": {"uuid": "4e593474-6add-44a1-b0b8-c53f2aac44ad", "name": "Urcagarage (Almere Buiten)", "municipality": "Almere Buiten", "operator": "P1", "capacity": 209, "vacantSpaces": 147, "occupancyPercent": 29.7, "open": true, "full": false, "lastUpdated": 1772808030}}, {"type": "Feature", "geometry": {"type": "Point", "coordinates": [5.553624, 52.024715]}, "properties": {"uuid": "83e8b817-f383-453b-a4fc-b7a99a45dc18", "name": "Terrein Duivenweide (Veenendaal)", "municipality": "Veenendaal", "operator": "P1", "capacity": 441, "vacantSpaces": 211, "occupancyPercent": 52.2, "open": true, "full": false, "lastUpdated": 1772808216}}, {"type": "Feature", "geometry": {"type": "Point", "coordinates": [4.517862, 52.215931]}, "properties": {"uuid": "9976905e-fe02-4211-8976-1b77e57c3b6f", "name": "P + R station Sassenheim", "municipality": "Onbekend", "operator": "Nederlandse Spoorwegen", "capacity": 89, "vacantSpaces": 79, "occupancyPercent": 11.2, "open": true, "full": true, "lastUpdated": 1746629609}}, {"type": "Feature", "geometry": {"type": "Point", "coordinates": [4.897065, 52.378466]}, "properties": {"uuid": "ddcdd081-6046-4847-8438-dcea6ab51ccd", "name": "Garage Amsterdam Centrum (Amsterdam)", "municipality": "Amsterdam", "operator": "P1", "capacity": 385, "vacantSpaces": 232, "occupancyPercent": 39.7, "open": true, "full": false, "lastUpdated": 1762342675}}, {"type": "Feature", "geometry": {"type": "Point", "coordinates": [5.556489, 52.023543]}, "properties": {"uuid": "5ba03aad-2871-4fba-85bf-748798d2eb87", "name": "Garage Gemeentehuis (Veenendaal)", "municipality": "Veenendaal", "operator": "P1", "capacity": 300, "vacantSpaces": 151, "occupancyPercent": 49.7, "open": true, "full": false, "lastUpdated": 1772808027}}, {"type": "Feature", "geometry": {"type": "Point", "coordinates": [5.953013, 50.895842]}, "properties": {"uuid": "75104ad9-e029-4709-9b68-6b150258fc15", "name": "P+R In de Cramer (Heerlen)", "municipality": "Heerlen", "operator": "Nederlandse Spoorwegen", "capacity": 12, "vacantSpaces": 8, "occupancyPercent": 33.3, "open": true, "full": false, "lastUpdated": 1639497704}}, {"type": "Feature", "geometry": {"type": "Point", "coordinates": [5.122752, 52.077891]}, "properties": {"uuid": "a2a3a9b4-6c17-47a9-aa70-1edef947743f", "name": "Garage Vaartsche Rijn", "municipality": "Utrecht", "operator": "P1", "capacity": 224, "vacantSpaces": 121, "occupancyPercent": 46.0, "open": true, "full": false, "lastUpdated": 1772808008}}, {"type": "Feature", "geometry": {"type": "Point", "coordinates": [5.574138, 52.046039]}, "properties": {"uuid": "8bfefa99-a526-4ce8-b4e0-236d6b19bb23", "name": "P + R station Veenendaal-De Klomp Noord", "municipality": "Onbekend", "operator": "Nederlandse Spoorwegen", "capacity": 257, "vacantSpaces": 226, "occupancyPercent": 12.1, "open": true, "full": false, "lastUpdated": 1766561808}}, {"type": "Feature", "geometry": {"type": "Point", "coordinates": [5.890046, 50.866523]}, "properties": {"uuid": "f7e4a75c-79a2-41c7-b12e-aa88bff379f1", "name": "P+R Mareheiweg (Klimmen Ransdaal)", "municipality": "Klimmen Ransdaal", "operator": "Nederlandse Spoorwegen", "capacity": 28, "vacantSpaces": 28, "occupancyPercent": 0.0, "open": true, "full": false, "lastUpdated": 1639497702}}, {"type": "Feature", "geometry": {"type": "Point", "coordinates": [4.991383, 52.169516]}, "properties": {"uuid": "2c1cb38b-92ac-416c-a5a2-e3ee21d8180e", "name": "P + R station Breukelen ZO P1", "municipality": "Onbekend", "operator": "Nederlandse Spoorwegen", "capacity": 352, "vacantSpaces": 199, "occupancyPercent": 43.5, "open": true, "full": false, "lastUpdated": 1772807893}}, {"type": "Feature", "geometry": {"type": "Point", "coordinates": [4.977115, 52.27757]}, "properties": {"uuid": "80e6904b-0183-46dc-9d75-5238487d89ad", "name": "P + R staton Abcoude", "municipality": "Onbekend", "operator": "Nederlandse Spoorwegen", "capacity": 50, "vacantSpaces": null, "occupancyPercent": null, "open": null, "full": null, "lastUpdated": null}}, {"type": "Feature", "geometry": {"type": "Point", "coordinates": [5.276429, 52.393533]}, "properties": {"uuid": "02b97e2b-bea0-42ce-801c-5462221b28f7", "name": "Cubagarage (Almere Buiten)", "municipality": "Almere Buiten", "operator": "P1", "capacity": 91, "vacantSpaces": 40, "occupancyPercent": 56.0, "open": true, "full": false, "lastUpdated": 1772808030}}, {"type": "Feature", "geometry": {"type": "Point", "coordinates": [5.86266, 51.059046]}, "properties": {"uuid": "23703a32-e280-4265-97d3-dc82c40e92e1", "name": "P+R Stationsstraat (Susteren)", "municipality": "Susteren", "operator": "Nederlandse Spoorwegen", "capacity": 62, "vacantSpaces": 61, "occupancyPercent": 1.6, "open": true, "full": false, "lastUpdated": 1639497701}}, {"type": "Feature", "geometry": {"type": "Point", "coordinates": [5.41454, 50.50344]}, "properties": {"uuid": "af0b223f-cfe3-4e84-8359-2724e26315a0", "name": "Terrein Stadspark 2 (Maastricht)", "municipality": "Maastricht", "operator": "Maastricht", "capacity": 79, "vacantSpaces": 0, "occupancyPercent": 100.0, "open": true, "full": true, "lastUpdated": 1752066320}}, {"type": "Feature", "geometry": {"type": "Point", "coordinates": [5.41497, 50.50364]}, "properties": {"uuid": "45b1b090-778f-4a65-99ba-7baf8e0f4412", "name": "Terrein Stadspark 1 (Maastricht)", "municipality": "Maastricht", "operator": "Maastricht", "capacity": 227, "vacantSpaces": 33, "occupancyPercent": 85.5, "open": true, "full": false, "lastUpdated": 1752066495}}, {"type": "Feature", "geometry": {"type": "Point", "coordinates": [5.41473, 50.50291]}, "properties": {"uuid": "53d7d51e-1be5-4ecf-af13-c1c601d37503", "name": "Terrein Stadspark 3 (Maastricht)", "municipality": "Maastricht", "operator": "Maastricht", "capacity": 91, "vacantSpaces": 58, "occupancyPercent": 36.3, "open": true, "full": false, "lastUpdated": 1752066496}}, {"type": "Feature", "geometry": {"type": "Point", "coordinates": [5.963628, 52.215498]}, "properties": {"uuid": "c8def33d-6bbf-4162-a9bc-27bc79430d0d", "name": "Parkeergarage Marktplein", "municipality": "Onbekend", "operator": "Apeldoorn", "capacity": 685, "vacantSpaces": 523, "occupancyPercent": 23.6, "open": true, "full": false, "lastUpdated": 1772808253}}, {"type": "Feature", "geometry": {"type": "Point", "coordinates": [5.951353, 52.220213]}, "properties": {"uuid": "e556a717-480e-433d-b87b-0f37140076a6", "name": "Parkeergarage Orpheus", "municipality": "Onbekend", "operator": "Apeldoorn", "capacity": 430, "vacantSpaces": 425, "occupancyPercent": 1.2, "open": true, "full": false, "lastUpdated": 1772807946}}, {"type": "Feature", "geometry": {"type": "Point", "coordinates": [4.967626, 52.37074]}, "properties": {"uuid": "dcacb5b1-25e8-4efe-be95-044d87c4e4f4", "name": "GAR064ZB3 Zeeburg III P+R", "municipality": "Onbekend", "operator": "Amsterdam", "capacity": 265, "vacantSpaces": 164, "occupancyPercent": 38.1, "open": true, "full": false, "lastUpdated": 1772808258}}, {"type": "Feature", "geometry": {"type": "Point", "coordinates": [5.223197, 52.369412]}, "properties": {"uuid": "a293ae1c-779c-4d2b-80d0-a305c4b04e61", "name": "P5 Parkeerterrein Hennepveld", "municipality": "Almere", "operator": "Almere", "capacity": 315, "vacantSpaces": 83, "occupancyPercent": 73.7, "open": true, "full": false, "lastUpdated": 1772808030}}, {"type": "Feature", "geometry": {"type": "Point", "coordinates": [5.219964, 52.374188]}, "properties": {"uuid": "332264eb-f17e-4cbb-8ed2-40aae6f68b2c", "name": "P1 Parkeerterrein Koolzaadveld", "municipality": "Almere", "operator": "Almere", "capacity": 262, "vacantSpaces": 148, "occupancyPercent": 43.5, "open": true, "full": false, "lastUpdated": 1772808030}}, {"type": "Feature", "geometry": {"type": "Point", "coordinates": [4.938709, 52.39975]}, "properties": {"uuid": "a1b05a36-00f6-4492-93b6-73d0c451d4b6", "name": "GAR066BTY Garage Boven Y", "municipality": "Onbekend", "operator": "Amsterdam", "capacity": 328, "vacantSpaces": 259, "occupancyPercent": 21.0, "open": true, "full": false, "lastUpdated": 1772808276}}, {"type": "Feature", "geometry": {"type": "Point", "coordinates": [5.718426, 50.87225]}, "properties": {"uuid": "33d872e2-f94f-43b0-b07c-ce46e45422a5", "name": "P+R Station Maastricht Noord II", "municipality": "Onbekend", "operator": "Maastricht", "capacity": 181, "vacantSpaces": 162, "occupancyPercent": 10.5, "open": true, "full": false, "lastUpdated": 1727444267}}, {"type": "Feature", "geometry": {"type": "Point", "coordinates": [4.941118, 52.310434]}, "properties": {"uuid": "c97f5fd6-4434-4d93-9c43-804dc8f715e1", "name": "Garage P3 Mikado", "municipality": "Onbekend", "operator": "Amsterdam", "capacity": 190, "vacantSpaces": 70, "occupancyPercent": 63.2, "open": true, "full": false, "lastUpdated": 1772808277}}, {"type": "Feature", "geometry": {"type": "Point", "coordinates": [6.56954, 52.98963]}, "properties": {"uuid": "5283148b-441e-425d-bab4-ec0a68a33342", "name": "P+R Stationsplein (Assen)", "municipality": "Assen", "operator": "Nederlandse Spoorwegen", "capacity": 256, "vacantSpaces": 176, "occupancyPercent": 31.2, "open": true, "full": false, "lastUpdated": 1772807957}}, {"type": "Feature", "geometry": {"type": "Point", "coordinates": [4.45789, 51.5394]}, "properties": {"uuid": "08e88e8e-9a59-4ea7-9511-4914d75364ee", "name": "P+R Stationsstraat (Roosendaal)", "municipality": "Roosendaal", "operator": "Nederlandse Spoorwegen", "capacity": 110, "vacantSpaces": 75, "occupancyPercent": 31.8, "open": true, "full": false, "lastUpdated": 1772808247}}, {"type": "Feature", "geometry": {"type": "Point", "coordinates": [4.93576, 52.32266]}, "properties": {"uuid": "f0f161fb-e8f7-4dbb-81cd-fedce924d76c", "name": "P+R Stationsplein (Duivendrecht)", "municipality": "Duivendrecht", "operator": "Nederlandse Spoorwegen", "capacity": 230, "vacantSpaces": 195, "occupancyPercent": 15.2, "open": true, "full": false, "lastUpdated": 1772807710}}, {"type": "Feature", "geometry": {"type": "Point", "coordinates": [5.2943, 51.68848]}, "properties": {"uuid": "f1807d7c-176c-44f2-8fbc-a09b18c5aa69", "name": "P+R Magistratenlaan ('s-Hertogenbosch)", "municipality": "'s-Hertogenbosch", "operator": "Nederlandse Spoorwegen", "capacity": 133, "vacantSpaces": 82, "occupancyPercent": 38.3, "open": true, "full": false, "lastUpdated": 1772808228}}, {"type": "Feature", "geometry": {"type": "Point", "coordinates": [4.46103, 51.54031]}, "properties": {"uuid": "656ec2fe-54a8-4e3c-8118-2182adc93bd1", "name": "P+R Stationsplein (Roosendaal)", "municipality": "Roosendaal", "operator": "Nederlandse Spoorwegen", "capacity": 98, "vacantSpaces": 64, "occupancyPercent": 34.7, "open": true, "full": false, "lastUpdated": 1772807992}}, {"type": "Feature", "geometry": {"type": "Point", "coordinates": [5.85132, 51.84469]}, "properties": {"uuid": "88053957-10e2-4453-a3d7-1706298b9737", "name": "P+R 1e Oude Heselaan (Nijmegen)", "municipality": "Nijmegen", "operator": "Nederlandse Spoorwegen", "capacity": 85, "vacantSpaces": 42, "occupancyPercent": 50.6, "open": true, "full": false, "lastUpdated": 1772808205}}, {"type": "Feature", "geometry": {"type": "Point", "coordinates": [5.31807, 51.58316]}, "properties": {"uuid": "87657efe-b52a-40e4-9cf2-cf356a24017c", "name": "P+R Van Salmstraat (Boxtel)", "municipality": "Boxtel", "operator": "Nederlandse Spoorwegen", "capacity": 189, "vacantSpaces": 169, "occupancyPercent": 10.6, "open": true, "full": false, "lastUpdated": 1772808161}}, {"type": "Feature", "geometry": {"type": "Point", "coordinates": [4.46987, 51.92616]}, "properties": {"uuid": "dfb0da3d-3258-4bac-8500-6091faea093c", "name": "P+R Provenierssingel (Rotterdam Centraal)", "municipality": "Rotterdam Centraal", "operator": "Nederlandse Spoorwegen", "capacity": 107, "vacantSpaces": 86, "occupancyPercent": 19.6, "open": true, "full": false, "lastUpdated": 1772808080}}, {"type": "Feature", "geometry": {"type": "Point", "coordinates": [3.61519, 51.49375]}, "properties": {"uuid": "a74cb3bf-e681-45a0-bd09-60ab91099fec", "name": "P+R Segeersingel (Middelburg)", "municipality": "Middelburg", "operator": "Nederlandse Spoorwegen", "capacity": 143, "vacantSpaces": 112, "occupancyPercent": 21.7, "open": true, "full": false, "lastUpdated": 1772808140}}, {"type": "Feature", "geometry": {"type": "Point", "coordinates": [5.4856, 51.44248]}, "properties": {"uuid": "cc7a3d99-d6f6-4407-86bc-008eb47549ea", "name": "P+R Fuutlaan (Eindhoven)", "municipality": "Eindhoven", "operator": "Nederlandse Spoorwegen", "capacity": 130, "vacantSpaces": 52, "occupancyPercent": 60.0, "open": true, "full": false, "lastUpdated": 1772808242}}, {"type": "Feature", "geometry": {"type": "Point", "coordinates": [4.74079, 52.63905]}, "properties": {"uuid": "d863d817-96ec-4b0a-9393-97b6adaf70f5", "name": "P+R Kruseman van Eltenweg (Alkmaar)", "municipality": "Alkmaar", "operator": "Nederlandse Spoorwegen", "capacity": 180, "vacantSpaces": 136, "occupancyPercent": 24.4, "open": true, "full": false, "lastUpdated": 1772808203}}, {"type": "Feature", "geometry": {"type": "Point", "coordinates": [4.78184, 51.595]}, "properties": {"uuid": "b17c99c0-65af-4451-a700-a21b24fc611e", "name": "P+R Stationsweg (Breda)", "municipality": "Breda", "operator": "Nederlandse Spoorwegen", "capacity": 39, "vacantSpaces": 50, "occupancyPercent": -28.2, "open": true, "full": false, "lastUpdated": 1772807896}}, {"type": "Feature", "geometry": {"type": "Point", "coordinates": [4.81236, 52.44162]}, "properties": {"uuid": "3509fe81-59aa-47a7-a7ba-6d881d9a24fd", "name": "P+R Provincialeweg (Zaandam)", "municipality": "Zaandam", "operator": "Nederlandse Spoorwegen", "capacity": 100, "vacantSpaces": 83, "occupancyPercent": 17.0, "open": true, "full": false, "lastUpdated": 1772808081}}, {"type": "Feature", "geometry": {"type": "Point", "coordinates": [5.69808, 51.24941]}, "properties": {"uuid": "2190c694-e24f-4b6c-a10b-d84b90945078", "name": "P+R Parallelweg (Weert)", "municipality": "Weert", "operator": "Nederlandse Spoorwegen", "capacity": 279, "vacantSpaces": 87, "occupancyPercent": 68.8, "open": true, "full": false, "lastUpdated": 1772808243}}, {"type": "Feature", "geometry": {"type": "Point", "coordinates": [5.83199, 52.08568]}, "properties": {"uuid": "8aa45b74-0b08-4234-9231-29b6a80a9ee7", "name": "P+R Spoorlaan (Valkenburg)", "municipality": "Valkenburg", "operator": "Nederlandse Spoorwegen", "capacity": 123, "vacantSpaces": 80, "occupancyPercent": 35.0, "open": true, "full": false, "lastUpdated": 1772808154}}, {"type": "Feature", "geometry": {"type": "Point", "coordinates": [5.19772, 51.5827]}, "properties": {"uuid": "9a11d95d-87bc-4b26-aff8-4cd6f6c2fc75", "name": "P+R Spoorlaan (Oisterwijk)", "municipality": "Oisterwijk", "operator": "Nederlandse Spoorwegen", "capacity": 125, "vacantSpaces": 107, "occupancyPercent": 14.4, "open": true, "full": false, "lastUpdated": 1772808209}}, {"type": "Feature", "geometry": {"type": "Point", "coordinates": [5.650877, 53.031308]}, "properties": {"uuid": "5da92d12-8d50-439a-a900-2cde0d600a83", "name": "P+R Sneek (Sneek)", "municipality": "Sneek", "operator": "Nederlandse Spoorwegen", "capacity": 55, "vacantSpaces": 45, "occupancyPercent": 18.2, "open": true, "full": false, "lastUpdated": 1772807489}}, {"type": "Feature", "geometry": {"type": "Point", "coordinates": [5.36837, 52.1529]}, "properties": {"uuid": "325f0f1e-f5e5-44fa-8335-a7086df8976e", "name": "P+R Barchman Wuijtierslaan (Amersfoort)", "municipality": "Amersfoort", "operator": "Nederlandse Spoorwegen", "capacity": 180, "vacantSpaces": 165, "occupancyPercent": 8.3, "open": true, "full": false, "lastUpdated": 1772807587}}, {"type": "Feature", "geometry": {"type": "Point", "coordinates": [6.795602, 52.260827]}, "properties": {"uuid": "222fa1c9-20df-433b-ba27-5c7c7c128f3d", "name": "P+R Industrieplein (Hengelo)", "municipality": "Hengelo", "operator": "Nederlandse Spoorwegen", "capacity": 256, "vacantSpaces": 245, "occupancyPercent": 4.3, "open": true, "full": false, "lastUpdated": 1772808167}}, {"type": "Feature", "geometry": {"type": "Point", "coordinates": [6.560898, 53.211687]}, "properties": {"uuid": "751c1199-6ad2-4fc4-b879-8b9091c9d96c", "name": "P+R Hoofdstation (Groningen)", "municipality": "Groningen", "operator": "Nederlandse Spoorwegen", "capacity": 146, "vacantSpaces": 97, "occupancyPercent": 33.6, "open": true, "full": false, "lastUpdated": 1772808240}}, {"type": "Feature", "geometry": {"type": "Point", "coordinates": [6.192855, 52.145233]}, "properties": {"uuid": "7b4e7874-59b9-4e9c-9486-206453b5a2a5", "name": "P+R Lijmerij (Zutphen)", "municipality": "Zutphen", "operator": "Nederlandse Spoorwegen", "capacity": 308, "vacantSpaces": 269, "occupancyPercent": 12.7, "open": true, "full": false, "lastUpdated": 1772808062}}, {"type": "Feature", "geometry": {"type": "Point", "coordinates": [6.16647, 52.25496]}, "properties": {"uuid": "5e438ace-a80a-4a9b-9047-782c092d9fc5", "name": "P+R Handelskade (Deventer)", "municipality": "Deventer", "operator": "Nederlandse Spoorwegen", "capacity": 162, "vacantSpaces": 132, "occupancyPercent": 18.5, "open": true, "full": false, "lastUpdated": 1772808054}}, {"type": "Feature", "geometry": {"type": "Point", "coordinates": [5.857042, 51.001739]}, "properties": {"uuid": "46fa33ae-878c-4afa-b231-9930ee1fb073", "name": "P+R Transferium (Sittard)", "municipality": "Sittard", "operator": "Nederlandse Spoorwegen", "capacity": 495, "vacantSpaces": 223, "occupancyPercent": 54.9, "open": true, "full": false, "lastUpdated": 1772807609}}, {"type": "Feature", "geometry": {"type": "Point", "coordinates": [4.66915, 51.80662]}, "properties": {"uuid": "5ad7a1ad-ec96-4e5c-9356-a5809078aada", "name": "P+R Markettenweg (Dordrecht)", "municipality": "Dordrecht", "operator": "Nederlandse Spoorwegen", "capacity": 113, "vacantSpaces": 71, "occupancyPercent": 37.2, "open": true, "full": false, "lastUpdated": 1772808014}}, {"type": "Feature", "geometry": {"type": "Point", "coordinates": [5.37218, 52.15498]}, "properties": {"uuid": "fa1c4be1-6424-43e9-bf19-91cbb126ce63", "name": "P+R Piet Mondriaanplein (Amersfoort)", "municipality": "Amersfoort", "operator": "Nederlandse Spoorwegen", "capacity": 431, "vacantSpaces": 80, "occupancyPercent": 81.4, "open": true, "full": false, "lastUpdated": 1772807923}}, {"type": "Feature", "geometry": {"type": "Point", "coordinates": [5.15665, 52.28006]}, "properties": {"uuid": "f7e93a01-102a-47de-aafb-0dea5f163a4c", "name": "P+R Slochterenlaan (Naarden-Bussum)", "municipality": "Naarden-Bussum", "operator": "Nederlandse Spoorwegen", "capacity": 93, "vacantSpaces": 65, "occupancyPercent": 30.1, "open": true, "full": false, "lastUpdated": 1772807713}}, {"type": "Feature", "geometry": {"type": "Point", "coordinates": [4.83367, 52.35919]}, "properties": {"uuid": "ac546da2-cc2b-4e1d-adf7-15bcecde9fff", "name": "P+R Comeniuslaan (Amsterdam Lelylaan)", "municipality": "Amsterdam Lelylaan", "operator": "Nederlandse Spoorwegen", "capacity": 70, "vacantSpaces": 59, "occupancyPercent": 15.7, "open": true, "full": false, "lastUpdated": 1772807784}}, {"type": "Feature", "geometry": {"type": "Point", "coordinates": [4.65566, 52.12741]}, "properties": {"uuid": "9b647f63-9c6b-4b14-93b3-a3ead7dee757", "name": "P+R Sacharovlaan (Alphen a/d Rijn)", "municipality": "Alphen a/d Rijn", "operator": "Nederlandse Spoorwegen", "capacity": 197, "vacantSpaces": 166, "occupancyPercent": 15.7, "open": true, "full": false, "lastUpdated": 1772808244}}, {"type": "Feature", "geometry": {"type": "Point", "coordinates": [4.96932, 51.83421]}, "properties": {"uuid": "1840ed29-74ce-46fc-8265-85c7c69c1acb", "name": "P+R Stationsweg (Gorinchem)", "municipality": "Gorinchem", "operator": "Nederlandse Spoorwegen", "capacity": 122, "vacantSpaces": 108, "occupancyPercent": 11.5, "open": true, "full": false, "lastUpdated": 1772807764}}, {"type": "Feature", "geometry": {"type": "Point", "coordinates": [4.606, 52.35933]}, "properties": {"uuid": "5d3110ce-748f-4d92-b131-11f1c456f510", "name": "P+R Roemer Visscherplein (Heemstede-Aerdenhout)", "municipality": "Heemstede-Aerdenhout", "operator": "Nederlandse Spoorwegen", "capacity": 132, "vacantSpaces": 87, "occupancyPercent": 34.1, "open": true, "full": false, "lastUpdated": 1772807926}}, {"type": "Feature", "geometry": {"type": "Point", "coordinates": [5.9706, 52.20862]}, "properties": {"uuid": "d713179a-5257-46e3-a989-705291add0c1", "name": "P+R Laan van de Mensenrechten (Apeldoorn)", "municipality": "Apeldoorn", "operator": "Nederlandse Spoorwegen", "capacity": 178, "vacantSpaces": -19, "occupancyPercent": 110.7, "open": true, "full": true, "lastUpdated": 1772808219}}, {"type": "Feature", "geometry": {"type": "Point", "coordinates": [4.65656, 52.47915]}, "properties": {"uuid": "e25f0d56-a213-416b-ab85-9f4d40d0f8f6", "name": "P+R Wijckermolen (Beverwijk)", "municipality": "Beverwijk", "operator": "Nederlandse Spoorwegen", "capacity": 116, "vacantSpaces": 100, "occupancyPercent": 13.8, "open": true, "full": false, "lastUpdated": 1772807435}}, {"type": "Feature", "geometry": {"type": "Point", "coordinates": [5.531281, 51.76499]}, "properties": {"uuid": "3cc2d8e4-53ef-48ba-8dda-c97047d16fe1", "name": "P+R Gasstraat (Oss)", "municipality": "Oss", "operator": "Nederlandse Spoorwegen", "capacity": 234, "vacantSpaces": 171, "occupancyPercent": 26.9, "open": true, "full": false, "lastUpdated": 1772807850}}, {"type": "Feature", "geometry": {"type": "Point", "coordinates": [6.1734, 51.36437]}, "properties": {"uuid": "2eb02bef-9754-4091-b7cf-63932d0bf28e", "name": "P+R Kaldenkerkerweg (Venlo)", "municipality": "Venlo", "operator": "Nederlandse Spoorwegen", "capacity": 80, "vacantSpaces": 66, "occupancyPercent": 17.5, "open": true, "full": false, "lastUpdated": 1772807794}}, {"type": "Feature", "geometry": {"type": "Point", "coordinates": [5.70299, 50.85319]}, "properties": {"uuid": "c74987a5-2457-407e-8cf2-5f92ac7279ec", "name": "P+R Meersenerstraat (Maastricht)", "municipality": "Maastricht", "operator": "Nederlandse Spoorwegen", "capacity": 27, "vacantSpaces": 46, "occupancyPercent": -70.4, "open": true, "full": false, "lastUpdated": 1772807858}}, {"type": "Feature", "geometry": {"type": "Point", "coordinates": [4.40896, 51.92158]}, "properties": {"uuid": "1535650f-5e48-49fe-b849-24bf24ee13ab", "name": "P+R Horvathweg (Schiedam Centrum)", "municipality": "Schiedam Centrum", "operator": "Nederlandse Spoorwegen", "capacity": 53, "vacantSpaces": 32, "occupancyPercent": 39.6, "open": true, "full": false, "lastUpdated": 1772807772}}, {"type": "Feature", "geometry": {"type": "Point", "coordinates": [4.89278, 52.08568]}, "properties": {"uuid": "83c0ebb3-ef4b-49bd-b15d-e30fc58902bf", "name": "P+R Spoorlaan (Woerden)", "municipality": "Woerden", "operator": "Nederlandse Spoorwegen", "capacity": 154, "vacantSpaces": 97, "occupancyPercent": 37.0, "open": true, "full": false, "lastUpdated": 1772808080}}, {"type": "Feature", "geometry": {"type": "Point", "coordinates": [5.29336, 51.6918]}, "properties": {"uuid": "695cef16-b614-4489-b32a-687aca22dd4e", "name": "P+R Mayweg ('s-Hertogenbosch)", "municipality": "'s-Hertogenbosch", "operator": "Nederlandse Spoorwegen", "capacity": 353, "vacantSpaces": 291, "occupancyPercent": 17.6, "open": true, "full": false, "lastUpdated": 1772808246}}, {"type": "Feature", "geometry": {"type": "Point", "coordinates": [4.40951, 51.92229]}, "properties": {"uuid": "d7f41af5-8e89-465a-963c-f5102affcd78", "name": "P+R Parallelweg (Schiedam Centrum)", "municipality": "Schiedam Centrum", "operator": "Nederlandse Spoorwegen", "capacity": 70, "vacantSpaces": 69, "occupancyPercent": 1.4, "open": true, "full": false, "lastUpdated": 1768231580}}, {"type": "Feature", "geometry": {"type": "Point", "coordinates": [4.29674, 51.49488]}, "properties": {"uuid": "41306aac-28b3-4cbf-8df4-b1a6aa5647c8", "name": "P+R Parallelweg (Bergen op Zoom)", "municipality": "Bergen op Zoom", "operator": "Nederlandse Spoorwegen", "capacity": 120, "vacantSpaces": 97, "occupancyPercent": 19.2, "open": true, "full": false, "lastUpdated": 1772808172}}, {"type": "Feature", "geometry": {"type": "Point", "coordinates": [5.79078, 53.19531]}, "properties": {"uuid": "9ed37ad1-9374-400a-918f-f02411eb8ce6", "name": "P+R Wijnhornsterstraat (Leeuwarden)", "municipality": "Leeuwarden", "operator": "Nederlandse Spoorwegen", "capacity": 210, "vacantSpaces": 156, "occupancyPercent": 25.7, "open": true, "full": false, "lastUpdated": 1772808212}}, {"type": "Feature", "geometry": {"type": "Point", "coordinates": [5.70635, 50.85099]}, "properties": {"uuid": "74823881-a189-4746-ae24-528e733777f7", "name": "P+R Parallelweg (Maastricht)", "municipality": "Maastricht", "operator": "Nederlandse Spoorwegen", "capacity": 276, "vacantSpaces": 380, "occupancyPercent": -37.7, "open": true, "full": false, "lastUpdated": 1772808144}}, {"type": "Feature", "geometry": {"type": "Point", "coordinates": [5.91403, 52.96257]}, "properties": {"uuid": "f7eafdd2-de31-4aff-b554-75270a60bc99", "name": "P+R Stationsplein (Heerenveen)", "municipality": "Heerenveen", "operator": "Nederlandse Spoorwegen", "capacity": 129, "vacantSpaces": 78, "occupancyPercent": 39.5, "open": true, "full": false, "lastUpdated": 1772808068}}, {"type": "Feature", "geometry": {"type": "Point", "coordinates": [5.99224, 51.18948]}, "properties": {"uuid": "39c7e31a-5a22-4c4a-935f-482feaf65823", "name": "P+R Veeladingstraat (Roermond)", "municipality": "Roermond", "operator": "Nederlandse Spoorwegen", "capacity": 81, "vacantSpaces": 37, "occupancyPercent": 54.3, "open": true, "full": false, "lastUpdated": 1772808155}}, {"type": "Feature", "geometry": {"type": "Point", "coordinates": [5.97021, 50.89101]}, "properties": {"uuid": "7565d9ad-4f5a-4cb0-b9c5-53d68a2ad323", "name": "P+R Parallelweg (Heerlen)", "municipality": "Heerlen", "operator": "Nederlandse Spoorwegen", "capacity": 223, "vacantSpaces": 212, "occupancyPercent": 4.9, "open": true, "full": false, "lastUpdated": 1772807769}}, {"type": "Feature", "geometry": {"type": "Point", "coordinates": [4.642238, 51.81431]}, "properties": {"uuid": "c1aee7fe-47b9-48d8-98d0-6bc9aa033e6e", "name": "P+R Westelijke parallelweg (Zwijndrecht)", "municipality": "Zwijndrecht", "operator": "Nederlandse Spoorwegen", "capacity": 117, "vacantSpaces": 43, "occupancyPercent": 63.2, "open": true, "full": false, "lastUpdated": 1772807921}}, {"type": "Feature", "geometry": {"type": "Point", "coordinates": [5.6637, 51.47612]}, "properties": {"uuid": "fed5c736-f2d8-4f91-8fd0-9d9188ba76bf", "name": "P+R Smalstraat (Helmond)", "municipality": "Helmond", "operator": "Nederlandse Spoorwegen", "capacity": 100, "vacantSpaces": 89, "occupancyPercent": 11.0, "open": true, "full": false, "lastUpdated": 1772807839}}, {"type": "Feature", "geometry": {"type": "Point", "coordinates": [4.777855, 51.596259]}, "properties": {"uuid": "d5565e93-2f9f-4074-8548-e631b72bae66", "name": "P+R Station (Breda)", "municipality": "Breda", "operator": "Nederlandse Spoorwegen", "capacity": 550, "vacantSpaces": 489, "occupancyPercent": 11.1, "open": true, "full": false, "lastUpdated": 1772808168}}, {"type": "Feature", "geometry": {"type": "Point", "coordinates": [5.99458, 51.19466]}, "properties": {"uuid": "27b012c7-0ae9-4607-99ba-c7ee3c2b21fe", "name": "P+R Godsweerdersingel (Roermond)", "municipality": "Roermond", "operator": "Nederlandse Spoorwegen", "capacity": 83, "vacantSpaces": 62, "occupancyPercent": 25.3, "open": true, "full": false, "lastUpdated": 1772807719}}, {"type": "Feature", "geometry": {"type": "Point", "coordinates": [4.34398, 52.07847]}, "properties": {"uuid": "fc687c9c-c03d-42f3-ad4c-2d9734121a38", "name": "P+R Laan v NOI (Den Haag)", "municipality": "Den Haag", "operator": "Nederlandse Spoorwegen", "capacity": 129, "vacantSpaces": 84, "occupancyPercent": 34.9, "open": true, "full": false, "lastUpdated": 1772808227}}, {"type": "Feature", "geometry": {"type": "Point", "coordinates": [4.890934, 52.082613]}, "properties": {"uuid": "0b6cd5b5-8a48-4e69-a38e-6e38c12cb9a7", "name": "P+R Houttuinlaan 3 parking (Woerden)", "municipality": "Woerden", "operator": "Nederlandse Spoorwegen", "capacity": 245, "vacantSpaces": 240, "occupancyPercent": 2.0, "open": true, "full": false, "lastUpdated": 1747293594}}, {"type": "Feature", "geometry": {"type": "Point", "coordinates": [5.049902, 52.64426]}, "properties": {"uuid": "1b1834c0-d727-4370-9111-3076f8b038fc", "name": "Parkeerterrein Pelmolenpad (Hoorn)", "municipality": "Hoorn", "operator": "Hoorn", "capacity": 573, "vacantSpaces": 378, "occupancyPercent": 34.0, "open": true, "full": false, "lastUpdated": 1772808030}}, {"type": "Feature", "geometry": {"type": "Point", "coordinates": [5.0544, 52.646131]}, "properties": {"uuid": "1c1f3c0a-8c0c-4ac9-b4ce-8ae7000aae9f", "name": "Parkeerterrein Transferium (Hoorn)", "municipality": "Hoorn", "operator": "Hoorn", "capacity": 609, "vacantSpaces": 222, "occupancyPercent": 63.5, "open": true, "full": false, "lastUpdated": 1772808030}}, {"type": "Feature", "geometry": {"type": "Point", "coordinates": [6.41945, 52.16279]}, "properties": {"uuid": "0e9c5738-93b1-43fe-8f57-6f1066b5118a", "name": "Graafschapterrein (Lochem)", "municipality": "Lochem", "operator": "Lochem", "capacity": 170, "vacantSpaces": 35, "occupancyPercent": 79.4, "open": true, "full": false, "lastUpdated": 1772808000}}, {"type": "Feature", "geometry": {"type": "Point", "coordinates": [6.411232, 52.161736]}, "properties": {"uuid": "ddf76a3f-a13d-492f-8dd2-374a52c1a506", "name": "Mauritsweg (Lochem)", "municipality": "Lochem", "operator": "Lochem", "capacity": 200, "vacantSpaces": 80, "occupancyPercent": 60.0, "open": true, "full": false, "lastUpdated": 1772808000}}, {"type": "Feature", "geometry": {"type": "Point", "coordinates": [6.28279, 51.96354]}, "properties": {"uuid": "151f0df2-d198-4987-a2d6-4e5f1658c659", "name": "Varkensweide", "municipality": "Doetinchem", "operator": "Doetinchem", "capacity": 305, "vacantSpaces": 188, "occupancyPercent": 38.4, "open": true, "full": false, "lastUpdated": "1772808143"}}, {"type": "Feature", "geometry": {"type": "Point", "coordinates": [4.916547, 52.377647]}, "properties": {"uuid": "3bc514f1-bce7-4a42-b83f-e189e7b34056", "name": "Parkeergarage PTA/TTA Touringcars (Amsterdam)", "municipality": "Amsterdam", "operator": "Amsterdam", "capacity": 42, "vacantSpaces": 42, "occupancyPercent": 0.0, "open": true, "full": false, "lastUpdated": 1772808284}}, {"type": "Feature", "geometry": {"type": "Point", "coordinates": [4.860764, 52.336628]},